name,lat,lng,category,city,country,googleMapsLink,note
Amritsr Restaurant Sukhumvit Soi 22 - IndianRestaurant in Bangkok,13.732823,100.5650829,咖哩/印度,曼谷,TH,http://maps.google.com/?cid=9448594860363652209,
Buchon Yukhoe Main Store,37.5703409,126.999913,韓式料理,首爾,KR,http://maps.google.com/?cid=3621053671024990226,
松松海鮮店,13.7466887,100.5237356,海鮮料理,曼谷,TH,http://maps.google.com/?cid=5617696477233151,
成家小館 仁愛店｜酸菜白肉鍋・熱炒料理,25.0352905,121.5543882,東北/川湘菜,台北,TW,http://maps.google.com/?cid=11776717982364614449,
博多牛腸鍋 樂天地 博多站前店,33.5888011,130.415981,牛腸鍋,福岡,JP,http://maps.google.com/?cid=15499953752796295670,
Dacomecca,33.5874397,130.4193439,麵包坊,福岡,JP,http://maps.google.com/?cid=3049944856696640556,
天婦羅宮 上野站前店,35.7113521,139.7754892,天婦羅,東京,JP,http://maps.google.com/?cid=17063410719040137592,
Tempura Miya,35.7089951,139.774034,天婦羅,東京,JP,http://maps.google.com/?cid=6615999735455776040,
淺草 炸牛,35.7107673,139.7959519,日式料理,東京,JP,http://maps.google.com/?cid=15133757769088164000,
Khao Kheow Open Zoo,13.2155378,101.0530514,景點,,TH,http://maps.google.com/?cid=11981486391532339390,
好米亞,25.038892,121.547985,西式料理,台北,TW,http://maps.google.com/?cid=12275814521498230020,
雞窩餐廳,25.020063,121.5573831,台式料理,台北,TW,http://maps.google.com/?cid=4266412713323089882,
順順小館,25.0364053,121.5570006,台式料理,台北,TW,http://maps.google.com/?cid=6500239743716844125,
如嬌 花膠雞．鍋物 仁愛二店,25.0361559,121.5537984,火鍋,台北,TW,http://maps.google.com/?cid=18190133334220095121,
矢場丼 榮CentRise店,35.1679811,136.905446,豬排,名古屋,JP,http://maps.google.com/?cid=8236355203311106546,
名古屋味噌豬排 黑豚屋 らむちぃ,35.1667687,136.9078985,豬排,名古屋,JP,http://maps.google.com/?cid=13117063955543650772,
Have a Zeed by Steak Lao,13.7377055,100.5605626,西式料理,曼谷,TH,http://maps.google.com/?cid=8139199735839496240,
Pad Thai Mae Thong Bai,13.7440671,100.5329694,泰式料理,曼谷,TH,http://maps.google.com/?cid=1066653386950431125,
燒酒烤烤豬,25.0430331,121.5469997,台式料理,台北,TW,http://maps.google.com/?cid=6156349629597270203,
Tully’s Coffee - Yaechika,35.6794723,139.7714558,咖啡廳,東京,JP,http://maps.google.com/?cid=1364095592503644362,
膳 식사 韓式料理 Ma C So Yo,25.0026051,121.5123205,韓式料理,台北,TW,http://maps.google.com/?cid=13409518294517890448,
羊肉湯鍋-車庫羊肉爐,25.0593927,121.5398035,羊肉爐,台北,TW,http://maps.google.com/?cid=15361610955009835684,
階梯上食堂,25.1818661,121.6884075,台式料理,基隆,TW,http://maps.google.com/?cid=2004551241677275683,
福田一方鳳梨酥,25.0559075,121.5141834,甜點,台北,TW,http://maps.google.com/?cid=8173077605302286306,
碗粿之家,25.0523327,121.5136898,台式小吃,台北,TW,http://maps.google.com/?cid=11714517422805810951,
京站永春湯包麵館2.0,23.4819013,120.4313625,上海料理,嘉義,TW,http://maps.google.com/?cid=2729668852263758435,
La Nuova Piazzetta,41.8933246,12.489191,其他,羅馬,IT,http://maps.google.com/?cid=5816990672718758843,
韓金館,25.0500847,121.5274311,韓式料理,台北,TW,http://maps.google.com/?cid=8802726511104811687,
南大門韓國烤肉,25.0503333,121.527175,燒肉/燒烤,台北,TW,http://maps.google.com/?cid=4852314024658604876,
啊興阿滷肉飯,25.0506561,121.5273102,台式料理,台北,TW,http://maps.google.com/?cid=9998097511901422065,
鰻の成瀬 熊本市庁舎通り店,32.8026868,130.7091901,鰻魚料理,熊本,JP,http://maps.google.com/?cid=10013937293150167643,
泰美,25.0359152,121.5457884,泰式料理,台北,TW,http://maps.google.com/?cid=13672341750054380655,
香宜德瑞餐廳,25.0515797,121.5299273,台式料理,台北,TW,http://maps.google.com/?cid=12887730424992871471,
THE DISTRICT KEBAB | PIDE | LAHMACUN | PIZZA,48.2122876,16.3732955,異國料理,維也納,AT,http://maps.google.com/?cid=12152099561632457431,
小倉屋鰻魚飯 光復本店,25.0397246,121.5561857,鰻魚料理,台北,TW,http://maps.google.com/?cid=8085735779149419724,
榮榮園浙寧餐廳,25.0335786,121.5446388,上海料理,台北,TW,http://maps.google.com/?cid=6018616477767085582,
新葡苑餐廳 台北中山店,25.0538991,121.5224502,台式料理,台北,TW,http://maps.google.com/?cid=6875505174433894628,
雞湯榮麵食館,25.0602382,121.5238835,台式料理,台北,TW,http://maps.google.com/?cid=14779126292044256209,
Pastaio 手工義大利麵 林口店,25.0728206,121.3661375,西式料理,桃園,TW,http://maps.google.com/?cid=10764809080066871370,
春川家,25.0515626,121.5323359,韓式料理,台北,TW,http://maps.google.com/?cid=13128640593330941716,
番紅花城土耳其餐廳,25.051831,121.529944,異國料理,台北,TW,http://maps.google.com/?cid=17614708431082809416,
義大利米蘭手工窯烤披薩 台北中山店,25.0537685,121.5335221,台式料理,台北,TW,http://maps.google.com/?cid=15093936302375155411,
四平小館,25.0537431,121.5323081,台式料理,台北,TW,http://maps.google.com/?cid=11313261102116659669,
Chef 78,25.0450357,121.5319312,台式料理,台北,TW,http://maps.google.com/?cid=12913962327631982128,
韓香渟,25.1061647,121.5239938,韓式料理,台北,TW,http://maps.google.com/?cid=14091667637686761228,
滿納多韓國料理,25.1178212,121.5165363,韓式料理,台北,TW,http://maps.google.com/?cid=1111628468204452150,
NAAM 1608,13.7360369,100.5099487,泰式料理,曼谷,TH,http://maps.google.com/?cid=3060492051798961,
东大门 DDP 餐厅 順美家幸福的醬蟹,37.5677159,127.0077048,海鮮料理,首爾,KR,http://maps.google.com/?cid=490013063261449072,
Saemaul Restaurant Hongdae Seogyo Branch,37.5561608,126.9258254,韓式料理,首爾,KR,http://maps.google.com/?cid=4414453114557686660,
荒謬的生肉 弘大店,37.5550467,126.9235304,韓式料理,首爾,KR,http://maps.google.com/?cid=12693857427888256826,
RONGROS,13.7442546,100.4917087,泰式料理,曼谷,TH,http://maps.google.com/?cid=2272362899657774987,
Grand Pearl Cruise,13.7305101,100.5129246,景點,曼谷,TH,http://maps.google.com/?cid=1136130881808051594,
新韓館 - 韓式料理、ktv包廂、無菜單料理,25.0597939,121.543949,韓式料理,台北,TW,http://maps.google.com/?cid=14756168129033479778,
金孫俱樂部 日式燒肉,25.0603046,121.5410523,燒肉/燒烤,台北,TW,http://maps.google.com/?cid=4494232491935717190,
UNCLE-K 排骨火鍋店,25.0615164,121.5391637,火鍋,台北,TW,http://maps.google.com/?cid=8945578524530423166,
彌敦道茶餐廳,25.0569212,121.5465717,港式冰室,台北,TW,http://maps.google.com/?cid=7638123275903931887,
Somsak Pu-ob,13.7269186,100.4963321,泰式料理,曼谷,TH,http://maps.google.com/?cid=15682673001449475780,
KURODAHAN,33.5863653,130.3955307,日式料理,福岡,JP,http://maps.google.com/?cid=9153897247684269374,
Pain Stock Tenjin,33.5916517,130.4040419,麵包坊,福岡,JP,http://maps.google.com/?cid=3506534535511288643,
dacō,33.5859837,130.3965253,麵包坊,福岡,JP,http://maps.google.com/?cid=17236995833720814736,
Ganso Hakata Mentaiju Nishinakasu,33.5912507,130.404067,日式料理,福岡,JP,http://maps.google.com/?cid=16000112296655436028,
博多牛雜鍋前田屋 博多店,33.5891902,130.4164739,牛腸鍋,福岡,JP,http://maps.google.com/?cid=13425692811444264240,
ごま鯖と明太もつ鍋 一利 博多本店【個室完備】,33.5889979,130.4227802,牛腸鍋,福岡,JP,http://maps.google.com/?cid=2733227820493285652,
葉隱烏龍麵,33.583601,130.424646,烏龍麵,福岡,JP,http://maps.google.com/?cid=4181118908731132815,
燒肉八八,33.5860027,130.4275248,燒肉/燒烤,福岡,JP,http://maps.google.com/?cid=6750401036112287955,
博多一雙 博多車站東本店,33.586378,130.4250999,交通節點,福岡,JP,http://maps.google.com/?cid=14997510692567609889,
Hakatamotsunabemaedaya Sohonten,33.5877611,130.4254764,牛腸鍋,福岡,JP,http://maps.google.com/?cid=14706449575828127848,
牛雜鍋 一藤,33.5903234,130.416589,牛腸鍋,福岡,JP,http://maps.google.com/?cid=5958543089105966311,
The Full Full Hakata,33.5898843,130.4125482,日式料理,福岡,JP,http://maps.google.com/?cid=2916074012331889391,
Pae Sia Dimsum,13.7409959,100.5097934,泰式料理,曼谷,TH,http://maps.google.com/?cid=3978857492372430326,
Krua Phon Lamai,13.7408257,100.5096201,泰式料理,曼谷,TH,http://maps.google.com/?cid=10847814147337857348,
Muek Mun Kai Chicken Rice,13.7557703,100.5287185,冰品,曼谷,TH,http://maps.google.com/?cid=14725459725258927830,
冬陰功大龍蝦麵,13.7558844,100.5294348,泰式料理,曼谷,TH,http://maps.google.com/?cid=3835017274798473772,
安樂園,13.7469885,100.5006309,泰式料理,曼谷,TH,http://maps.google.com/?cid=7367601749156057973,
Chom Arun,13.7440478,100.4917704,泰式料理,曼谷,TH,http://maps.google.com/?cid=11290090530520378467,
แป๊ะซีฟู้ด : ราชเทวี,13.7516212,100.5321463,泰式料理,曼谷,TH,http://maps.google.com/?cid=17171942052269167292,
Hook說好吃的烤肉,37.5631748,127.0178824,燒肉/燒烤,首爾,KR,http://maps.google.com/?cid=3165162553768846670,
Myeongdong Restaurant The Sic-ddang,37.56228,126.9855648,韓式料理,首爾,KR,http://maps.google.com/?cid=4985095221169540289,
"무쇠김치삼겹, 명동 맛집 & 고기집ㅣ明洞 レストラン サムギョプサル グルメㅣ餐廳 美食 烤肉",37.5617573,126.9854028,燒肉/燒烤,首爾,KR,http://maps.google.com/?cid=2001038517439834813,
Goobne Chicken Myeongdong,37.5616968,126.9853881,韓式料理,首爾,KR,http://maps.google.com/?cid=387102784697645049,
Golden Farm,37.5615565,126.9845904,韓式料理,首爾,KR,http://maps.google.com/?cid=3510561002266614853,
Nara 曼谷尚泰世界店,13.7466376,100.5397879,泰式料理,曼谷,TH,http://maps.google.com/?cid=1663723672953665972,
Nara Thai Cuisine Erawan,13.7440807,100.540718,泰式料理,曼谷,TH,http://maps.google.com/?cid=9753171774657769160,
MaeThum Padthai,13.7536694,100.502369,泰式料理,曼谷,TH,http://maps.google.com/?cid=1691525737419498012,
Here Duan (Banthat Thong),13.7372013,100.5217804,泰式料理,曼谷,TH,http://maps.google.com/?cid=524935244971962758,
SIAM ORIGINS,13.7442738,100.4937818,景點,曼谷,TH,http://maps.google.com/?cid=13124921234827083559,
The Deck by Arun Residence,13.7448231,100.491302,泰式料理,曼谷,TH,http://maps.google.com/?cid=5086173011053712312,
Khao Dong Moo Daeng,13.7555146,100.4865935,泰式料理,曼谷,TH,http://maps.google.com/?cid=10579959114145141253,
MORI CAFE,13.7535419,100.4297931,咖啡廳,曼谷,TH,http://maps.google.com/?cid=2578741946616494010,
SOMTAMนัว Ratchapruek,13.7522767,100.4420172,泰式料理,曼谷,TH,http://maps.google.com/?cid=6080410365447780458,
James Boulangerie,13.7530629,100.4354884,麵包坊,曼谷,TH,http://maps.google.com/?cid=15030142242214199788,
Meng Pu Dong Prannok-Kanchanaphisek,13.7518239,100.4390476,泰式料理,曼谷,TH,http://maps.google.com/?cid=7599316221729279104,
Rolling Roasters,13.7535158,100.4320313,咖啡廳,曼谷,TH,http://maps.google.com/?cid=9328930420397787268,
Mae Klong Hua Pla Mo Fai,13.7547371,100.4215626,泰式料理,曼谷,TH,http://maps.google.com/?cid=15004929441181549521,
The Pine Farm & Cafe,13.7608967,100.4149653,咖啡廳,曼谷,TH,http://maps.google.com/?cid=4184326045585276984,
Motsukane Matcha House,13.787335,100.394972,抹茶甜點,曼谷,TH,http://maps.google.com/?cid=3244224906881205406,
Suan Arhan Ruean Kaeo,13.7878406,100.3979269,泰式料理,曼谷,TH,http://maps.google.com/?cid=11969855230426585363,
Ruan Mae Loui Restaurant,13.7873835,100.4004267,泰式料理,曼谷,TH,http://maps.google.com/?cid=8035314400952815155,
Eat Kung Phao Khlong Mon,13.7900935,100.3941741,泰式料理,曼谷,TH,http://maps.google.com/?cid=1136472088952128234,
บ้านใจรัก,13.7830524,100.3968416,泰式料理,曼谷,TH,http://maps.google.com/?cid=7370473131352120815,
เฮงหอยทอด - ตลาดสดธนบุรี,13.7854443,100.3978831,泰式料理,曼谷,TH,http://maps.google.com/?cid=15717085596066816623,
廟口阿嬷臭豆腐,24.4902879,120.6817685,台式小吃,台中,TW,http://maps.google.com/?cid=10658193500251596852,
大安米粉湯,25.0234697,121.5432177,台式料理,台北,TW,http://maps.google.com/?cid=17443459486535444280,
西藏廚房,25.0251746,121.5425602,台式料理,台北,TW,http://maps.google.com/?cid=3019558900542943263,
巧巧香雞排（瑞安店）,25.0273123,121.5401895,台式料理,台北,TW,http://maps.google.com/?cid=4582894276193373689,
米食 미식,25.0269805,121.5396707,台式料理,台北,TW,http://maps.google.com/?cid=2161658765585374328,
上鼎豐小籠湯包,25.0263691,121.5392479,上海料理,台北,TW,http://maps.google.com/?cid=6956995549729684627,
The Quiet Light 默光咖啡（瑞安店）,25.0273704,121.54016,咖啡廳,台北,TW,http://maps.google.com/?cid=7006425892216860522,
宋朝中餐廳,25.0262264,121.5416538,台式料理,台北,TW,http://maps.google.com/?cid=7419153714153694080,
賈福廚房 JFULL,25.0283674,121.5419192,台式料理,台北,TW,http://maps.google.com/?cid=12731764505123689433,
田中園 (大安店),25.0293657,121.5406382,台式料理,台北,TW,http://maps.google.com/?cid=11268718925989589330,
海福岡日式台式料理海鮮熱炒,25.028386,121.5467431,海鮮料理,台北,TW,http://maps.google.com/?cid=17812725603349143819,
金華街咖哩屋(Janny Curry House),25.030259,121.528257,咖哩/印度,台北,TW,http://maps.google.com/?cid=15355248014172891590,
東大門韓國特色料理,25.0245278,121.5280571,韓式料理,台北,TW,http://maps.google.com/?cid=4283151811447692684,
韓宮正宗韓式料理,25.0485926,121.5323787,韓式料理,台北,TW,http://maps.google.com/?cid=10712572259537602488,
釜山湯飯 부산국밥,25.0503604,121.5603806,韓式料理,台北,TW,http://maps.google.com/?cid=386299065214128278,
玖仰Jiuyang-永康門市,25.0329427,121.5299258,台式料理,台北,TW,http://maps.google.com/?cid=17034719162735014810,
Mosaic Art & Cafe 馬賽克土耳其餐廳,25.0329359,121.5291574,咖啡廳,台北,TW,http://maps.google.com/?cid=14349616167891395639,
Fallabella River Front,13.7264507,100.5111194,泰式料理,曼谷,TH,http://maps.google.com/?cid=5531416741336648145,
Sae Phun ข้าวหน้าไก่แซ่พุ้น,13.7534253,100.4983761,泰式料理,曼谷,TH,http://maps.google.com/?cid=11946761654799965788,
ร้านขจร | Kajohn Authentic Southern Thai Cuisine,13.7559825,100.5096848,泰式料理,曼谷,TH,http://maps.google.com/?cid=6006486264833919387,
識食餐室 ZEST DINER,25.0316827,121.5445554,台式料理,台北,TW,http://maps.google.com/?cid=9592919304875783792,
暹羅廚房—三重泰國菜,25.0624365,121.4955061,泰式料理,台北,TW,http://maps.google.com/?cid=5705439808721547431,
湊湊火鍋•茶憩 大巨蛋店,25.0418115,121.5603733,景點,台北,TW,http://maps.google.com/?cid=14074754136347566412,
螺絲瑪莉義麵坊,25.0517642,121.5219695,台式料理,台北,TW,http://maps.google.com/?cid=17655218574165337102,
M One Cafe 大安,25.0388681,121.5450689,咖啡廳,台北,TW,http://maps.google.com/?cid=708211114617327747,
玉虫画室,25.0541617,121.6016139,台式料理,台北,TW,http://maps.google.com/?cid=4291716500658981383,
興波咖啡 華山旗艦店,25.0439031,121.5276904,咖啡廳,台北,TW,http://maps.google.com/?cid=4151553565195229306,
武藏野の洋菓子,25.0760448,121.3760649,台式料理,桃園,TW,http://maps.google.com/?cid=10952067956532676455,
Oolong Crepes 烏龍可麗餅 日式可麗餅,25.0493894,121.5192557,台式料理,台北,TW,http://maps.google.com/?cid=15589561961032448785,
阿含thai,24.9293078,121.2545048,泰式料理,桃園,TW,http://maps.google.com/?cid=15354325844640078128,
YUM YUM泰式涼拌燒烤,24.9291856,121.254461,泰式料理,桃園,TW,http://maps.google.com/?cid=1679580891587453560,
阿杏臭豆腐,24.8811998,121.2875097,台式小吃,桃園,TW,http://maps.google.com/?cid=12217789934793825134,
大溪古味小棧,24.8816297,121.2871732,台式料理,桃園,TW,http://maps.google.com/?cid=13794399958375588984,
塔斯窩/桃園大溪老街隱藏美食/中式套餐/大溪老街美食/,24.8825053,121.2863043,甜點,桃園,TW,http://maps.google.com/?cid=10178100711720541438,
เฮียด่วน Hereduan - 段哥 Thai Street food,13.7383527,100.5886098,泰式料理,曼谷,TH,http://maps.google.com/?cid=15415940468635437582,
Myth,13.7601473,100.4962335,泰式料理,曼谷,TH,http://maps.google.com/?cid=15098149864320681489,
Kalyana Restaurant,13.7545787,100.5419686,泰式料理,曼谷,TH,http://maps.google.com/?cid=4565418811828632373,
Suda - Thai & Vegetarian Restaurant,13.7633111,100.5005761,泰式料理,曼谷,TH,http://maps.google.com/?cid=17050478533467532756,
Jasmine Siam Kitchen จัสมิน สยาม คิทเช่น,13.7538362,100.5306057,泰式料理,曼谷,TH,http://maps.google.com/?cid=13098205050580467836,
THE SIXTH 6th,13.7457049,100.4913201,泰式料理,曼谷,TH,http://maps.google.com/?cid=13936421963251414714,
Zafran Eatery - One Bangkok (Indian Food),13.7266018,100.5461989,咖哩/印度,曼谷,TH,http://maps.google.com/?cid=6518946191389773407,
Signature 15,13.7537478,100.5370839,泰式料理,曼谷,TH,http://maps.google.com/?cid=1756808632777755554,
แซ่บนิรันดร์ - ZAABNIRAN One Bangkok,13.7265918,100.5462603,泰式料理,曼谷,TH,http://maps.google.com/?cid=6870608693537363013,
Rosewood Restaurant,13.7042506,100.5024272,泰式料理,曼谷,TH,http://maps.google.com/?cid=12494578101181326982,
THE BRANCH Sourdough Sandwiches.Coffee.Cake & Juice,13.7611607,100.4936904,咖啡廳,曼谷,TH,http://maps.google.com/?cid=5622365356165172203,
DRINK COFFEE - HQ,13.7425044,100.5487048,咖啡廳,曼谷,TH,http://maps.google.com/?cid=4370156051667760620,
Lao Hong Chiang,13.756416,100.3954851,泰式料理,曼谷,TH,http://maps.google.com/?cid=702023373693272110,
Kodtalay The Riverfront Seafood Buffet,13.7143961,100.5110752,海鮮料理,曼谷,TH,http://maps.google.com/?cid=15507976099119307269,
Taling Pling Sukhumvit 34,13.7246165,100.5731972,泰式料理,曼谷,TH,http://maps.google.com/?cid=13388981065201512560,
建興海鮮酒家,13.7282415,100.5266321,海鮮料理,曼谷,TH,http://maps.google.com/?cid=190904613392791886,
王子戲院豬肉粥,13.7208579,100.516151,泰式料理,曼谷,TH,http://maps.google.com/?cid=12074234260692626819,
Kuay Jab Mr. Joe,13.7091825,100.5141618,泰式料理,曼谷,TH,http://maps.google.com/?cid=11856941294525804647,
Sri Trat Restaurant and Bar,13.7368037,100.5680964,泰式料理,曼谷,TH,http://maps.google.com/?cid=1936812339250291051,
Mae Varee,13.7240179,100.5793321,泰式料理,曼谷,TH,http://maps.google.com/?cid=3315406754575391777,
The Local,13.7406407,100.5636026,泰式料理,曼谷,TH,http://maps.google.com/?cid=10465357104461416368,
郭炎松 （牛肉湯）,13.7341825,100.5876467,泰式料理,曼谷,TH,http://maps.google.com/?cid=15909431373479206,
Here Hai (Original shop),13.7302655,100.586342,泰式料理,曼谷,TH,http://maps.google.com/?cid=2748471789301096848,
Jeh O Chula,13.7424996,100.5225179,泰式料理,曼谷,TH,http://maps.google.com/?cid=15238757142073429372,
Rung Rueang Pork Noodles,13.7284371,100.5706724,泰式料理,曼谷,TH,http://maps.google.com/?cid=14961108428832115858,
紅大哥水門雞飯(總店),13.7495863,100.5420894,泰式料理,曼谷,TH,http://maps.google.com/?cid=11429574275127970787,
Thipsamai Pad Thai鬼門炒河粉,13.7527976,100.504823,泰式料理,曼谷,TH,http://maps.google.com/?cid=7605461113463140286,
巴塞隆那高迪,13.7374948,100.5627674,泰式料理,曼谷,TH,http://maps.google.com/?cid=4165439198190895003,
頌通酒家,13.7194416,100.5666288,泰式料理,曼谷,TH,http://maps.google.com/?cid=9603100678306369416,
"Jim Thompson, A Thai Restaurant",13.7491036,100.5285763,泰式料理,曼谷,TH,http://maps.google.com/?cid=5778099887911284286,
MTR 1924 Bangkok,13.7234209,100.5211382,泰式料理,曼谷,TH,http://maps.google.com/?cid=17798245747431867773,
Jay Piek,13.7256982,100.4961914,泰式料理,曼谷,TH,http://maps.google.com/?cid=10103353136849799657,
Savoey @Terminal 21 Asok,13.7373997,100.5606394,交通節點,曼谷,TH,http://maps.google.com/?cid=15332943008039788478,
월정리 이런날엔,33.5426376,126.8307504,韓式料理,濟州,KR,http://maps.google.com/?cid=286625886916819857,
十大碗粥麵專家,22.3259729,114.1664154,台式小吃,香港,HK,http://maps.google.com/?cid=7670050077698752545,
Bakers Rorian,36.398871,136.441725,麵包坊,,JP,http://maps.google.com/?cid=14259032248634692596,
錫記招牌雲吞,22.2969461,114.1707205,港式料理,香港,HK,http://maps.google.com/?cid=12113879434291927621,
澳洲牛奶公司,22.304628,114.1705439,港式料理,香港,HK,http://maps.google.com/?cid=18038164721409490895,
燊咖啡,25.0164747,121.3016895,咖啡廳,桃園,TW,http://maps.google.com/?cid=17935421275992913993,
Ariel lee 章邖．Cafe（不定期公休請參閱官方IG）,25.0427796,121.5522264,咖啡廳,台北,TW,http://maps.google.com/?cid=1923142114280754284,
PIZZAROUND 比薩斜躺🍕🍕( 不提供訂位 人到齊後入坐 WALK-IN ONLY ),25.0362998,121.5557133,台式料理,台北,TW,http://maps.google.com/?cid=9885624276591275097,
金書西餐飲 韓國豬肉湯飯 돼지국밥,25.092148,121.5262299,韓式料理,台北,TW,http://maps.google.com/?cid=13995959515680612107,
忻鮨壽司,25.0385451,121.5008426,壽司,台北,TW,http://maps.google.com/?cid=14042727324077720740,
Yakiniku Wakaba,39.7159517,140.1381795,燒肉/燒烤,,JP,http://maps.google.com/?cid=2963782819400591596,
無限堂,39.7195107,140.115966,日式料理,,JP,http://maps.google.com/?cid=11217977042532688076,
點點心,22.3200607,114.1705378,港式/粵菜,香港,HK,http://maps.google.com/?cid=11339287955734934584,
媽咪雞蛋仔,22.3057768,114.1697375,港式料理,香港,HK,http://maps.google.com/?cid=9678965755878778437,
麻辣王 Chili King,22.3060762,114.1708746,港式料理,香港,HK,http://maps.google.com/?cid=1423757567261124480,
興記菜館,22.31136,114.170107,港式料理,香港,HK,http://maps.google.com/?cid=7770825836947612734,
魚心日本料理,25.0526437,121.5303249,台式料理,台北,TW,http://maps.google.com/?cid=7960614031078410742,
Sushi Sakaba Sashisu,34.6670162,135.5051444,壽司,大阪,JP,http://maps.google.com/?cid=17374332037517770750,
Matsu麵包,33.574168,130.3781338,麵包坊,福岡,JP,http://maps.google.com/?cid=17565391138077342942,
博多水炊鍋専門 橙,33.5896279,130.3814835,雞湯火鍋,福岡,JP,http://maps.google.com/?cid=15471653356998103554,
烏龍平,33.5831793,130.4160407,烏龍麵,福岡,JP,http://maps.google.com/?cid=14632460878750667045,
Tsim Chai Kee Noodle,22.2829758,114.1544256,港式料理,香港,HK,http://maps.google.com/?cid=8380974872586493257,
大池小館,22.326988,114.1954837,港式料理,香港,HK,http://maps.google.com/?cid=7336018105099031537,
毓鮨割烹－貴陽店,25.0397323,121.5049205,壽司,台北,TW,http://maps.google.com/?cid=5601957101966289918,
一吃上癮甕缸雞,25.044723,121.5529309,台式料理,台北,TW,http://maps.google.com/?cid=5766761743641684016,
阿男麻油雞,25.028881,121.5066339,台式料理,台北,TW,http://maps.google.com/?cid=15255861868189073989,
有味小吃店,25.0894368,121.4722795,台式料理,台北,TW,http://maps.google.com/?cid=4511251776564599167,
竺扶大班燒味,22.2762154,114.1743343,港式/粵菜,香港,HK,http://maps.google.com/?cid=8517563967692760053,
旺記冰室 (旺角),22.3159836,114.171385,港式冰室,香港,HK,http://maps.google.com/?cid=7471236170163885878,
祥興記上海生煎包(尖沙咀),22.2976589,114.1716428,上海料理,香港,HK,http://maps.google.com/?cid=8159380231779556721,
祥興記上海生煎包(中環),22.2824365,114.1534651,上海料理,香港,HK,http://maps.google.com/?cid=17984392650014859752,
金祥排骨麵,22.2871675,114.1387987,港式料理,香港,HK,http://maps.google.com/?cid=13123023684592587279,
新興食家,22.2829656,114.1282358,港式料理,香港,HK,http://maps.google.com/?cid=6559236013758686132,
腸粉皇,22.2771262,114.1774072,港式/粵菜,香港,HK,http://maps.google.com/?cid=2627859269638516620,
大壹燒鵝 (銅鑼灣),22.279376,114.1823157,港式/粵菜,香港,HK,http://maps.google.com/?cid=14018823565700873511,
榮記粉麵,22.2800381,114.1867358,港式料理,香港,HK,http://maps.google.com/?cid=4894582964588251834,
強記美食,22.2795865,114.1804137,港式料理,香港,HK,http://maps.google.com/?cid=10362341675027370671,
丹麥餅店,22.2777971,114.1862033,港式料理,香港,HK,http://maps.google.com/?cid=2893409818099317795,
麥記美食,22.2897932,114.1965938,港式料理,香港,HK,http://maps.google.com/?cid=10679846653118830003,
半島冰室,22.2882304,114.1918253,港式冰室,香港,HK,http://maps.google.com/?cid=9374674918878824540,
妹記生滾粥品,22.3208729,114.1706581,台式小吃,香港,HK,http://maps.google.com/?cid=13346780687923160855,
得閒飲茶,22.3324753,114.1622313,港式/粵菜,香港,HK,http://maps.google.com/?cid=5606834648968869991,
Old Fung Tea House,22.3189099,114.1714021,港式料理,香港,HK,http://maps.google.com/?cid=6839358266020751807,
屏山老地方茶餐廳 (肉餅專門店) - 土瓜灣,22.3175902,114.1917621,港式冰室,香港,HK,http://maps.google.com/?cid=1909030562271080358,
629 雞蛋仔,22.3348307,114.1970543,港式料理,香港,HK,http://maps.google.com/?cid=14997017446861232453,
民聲冰室,22.2786774,114.1926187,港式冰室,香港,HK,http://maps.google.com/?cid=16440056227499636212,
牛奶冰室 (尖沙咀),22.3031133,114.1724837,港式冰室,香港,HK,http://maps.google.com/?cid=3247186028887212421,
冠一燒味,22.276967,114.1712225,港式/粵菜,香港,HK,http://maps.google.com/?cid=8380950523897516060,
蜜雪冰城 (佐敦),22.3050516,114.17195,手搖/茶飲,香港,HK,http://maps.google.com/?cid=14663064100819845956,
坤記煲仔小菜,22.2870412,114.1430347,港式料理,香港,HK,http://maps.google.com/?cid=9198654695205104473,
金滿堂甜品,22.3285199,114.190771,甜點,香港,HK,http://maps.google.com/?cid=10849547084438977977,
一點心,22.3254818,114.1691477,港式/粵菜,香港,HK,http://maps.google.com/?cid=4795447438211965162,
文記車仔麵,22.3318131,114.1627936,港式料理,香港,HK,http://maps.google.com/?cid=1687127962954339858,
雪山冰廳,22.3340954,114.1621283,冰品,香港,HK,http://maps.google.com/?cid=7043592818236488064,
豐信餃子店,22.3254541,114.1670854,港式料理,香港,HK,http://maps.google.com/?cid=5255200838906037417,
金華冰廳,22.3222738,114.1697189,冰品,香港,HK,http://maps.google.com/?cid=10081384275683139023,
祥興咖啡室,22.2693517,114.1849949,咖啡廳,香港,HK,http://maps.google.com/?cid=360516057498639821,
劉森記麵家 (褔榮街),22.3318822,114.1630146,港式料理,香港,HK,http://maps.google.com/?cid=15052055980120507978,
公和荳品廠,22.33108,114.1634738,甜點,香港,HK,http://maps.google.com/?cid=17593128379089612879,
合益泰小食,22.3304721,114.1612409,泰式料理,香港,HK,http://maps.google.com/?cid=282017044639781733,
華姐清湯腩,22.2831794,114.1915492,港式料理,香港,HK,http://maps.google.com/?cid=8770216752632045996,
新景園咖喱小廚,22.2758176,114.1729784,景點,香港,HK,http://maps.google.com/?cid=18273641364991116596,
魚蛋佬,22.283181,114.2218136,港式料理,香港,HK,http://maps.google.com/?cid=17777793978468505850,
好好運快餐店,22.3395684,114.1495555,港式料理,香港,HK,http://maps.google.com/?cid=8590429411278926015,
糖水雄,22.3070658,114.1657366,港式料理,香港,HK,http://maps.google.com/?cid=13852009957298820624,
甘露甜品,22.3168993,114.1910724,甜點,香港,HK,http://maps.google.com/?cid=16015851705878553598,
愛文生,22.3266872,114.1623071,港式料理,香港,HK,http://maps.google.com/?cid=9931320855480126151,
大圍小館,22.3742926,114.1788503,港式料理,香港,HK,http://maps.google.com/?cid=17658061083364481991,
人人和平,22.2895083,114.1964268,港式料理,香港,HK,http://maps.google.com/?cid=12232873889263381320,
雄記美食,22.2775615,114.1772713,港式料理,香港,HK,http://maps.google.com/?cid=2655990136455267788,
富記麵家,22.2770532,114.1769649,港式料理,香港,HK,http://maps.google.com/?cid=10647796307197231936,
麥奀雲吞麵世家,22.2972512,114.1714282,港式料理,香港,HK,http://maps.google.com/?cid=15477143513477354248,
周記點心+茶餐廳,22.2869707,114.1388125,港式冰室,香港,HK,http://maps.google.com/?cid=17998199711325007448,
水記,22.283525,114.1542954,港式料理,香港,HK,http://maps.google.com/?cid=15810608433815912594,
點心到,22.3037815,114.1698291,港式/粵菜,香港,HK,http://maps.google.com/?cid=530332832169861403,
麥文記麵家,22.3046664,114.1705639,景點,香港,HK,http://maps.google.com/?cid=223003035127073132,
基隆茶餐廳,22.3263001,114.1667168,港式冰室,香港,HK,http://maps.google.com/?cid=7382979959097010219,
薔紅餐廳,22.2771621,114.1760636,港式料理,香港,HK,http://maps.google.com/?cid=9768052800790222862,
金輝點心(機利臣街),22.2767765,114.1702232,港式/粵菜,香港,HK,http://maps.google.com/?cid=14910905901228147722,
陳記燒臘飯店,22.3135329,114.1688973,住宿,香港,HK,http://maps.google.com/?cid=3163695473310567153,
啊一檸檬茶 (加拿分道店),22.2993394,114.1737229,港式料理,香港,HK,http://maps.google.com/?cid=11209808891964731421,
何車車仔麵,22.3243552,114.167067,港式料理,香港,HK,http://maps.google.com/?cid=4016664362636863695,
沾仔記,22.3035635,114.1698291,港式料理,香港,HK,http://maps.google.com/?cid=17060939160988148536,
大師傅粥品,22.2991643,114.1740643,台式小吃,香港,HK,http://maps.google.com/?cid=3535680177316347772,
新興發點心 New Hing Fat Dim Sum,22.2880826,114.1415764,港式/粵菜,香港,HK,http://maps.google.com/?cid=17833527258639722178,
肥姐小食,22.3157754,114.171733,港式料理,香港,HK,http://maps.google.com/?cid=18281040563633956922,
My Cup of Tea,22.2761048,114.1729032,港式料理,香港,HK,http://maps.google.com/?cid=3134634912512399542,
阿孟石碗燒河粉,25.0218586,121.5429563,台式料理,台北,TW,http://maps.google.com/?cid=4794311408175249411,
甘牌燒鵝,22.277642,114.175305,港式/粵菜,香港,HK,http://maps.google.com/?cid=10755535674325808389,
魚之誘日式料理,25.0112815,121.4545305,台式料理,台北,TW,http://maps.google.com/?cid=11461834176394023666,
軟蛋醬 蛋包飯專門製作所 台北信義店,25.0289609,121.5628562,台式料理,台北,TW,http://maps.google.com/?cid=2344289970826619450,
野菜家,25.0501926,121.5276393,台式料理,台北,TW,http://maps.google.com/?cid=9132619400540272109,
澗面小酒館 Bar & Cafe,25.0136888,121.5343786,咖啡廳,台北,TW,http://maps.google.com/?cid=7621443189843576976,
味自慢牛排,25.0124461,121.5355258,西式料理,台北,TW,http://maps.google.com/?cid=170549140073230581,
Sky Lab,25.0308765,121.5504864,台式料理,台北,TW,http://maps.google.com/?cid=17184367554526169080,
Hitsumabushi Bincho Dai-Nagoya Building Branch,35.1718784,136.8843021,鰻魚料理,名古屋,JP,http://maps.google.com/?cid=658691133629224432,
麵家獅子丸,35.1744608,136.8793602,日式料理,名古屋,JP,http://maps.google.com/?cid=3683998805213358281,
Shibafukuya,35.1751295,136.8915193,日式料理,名古屋,JP,http://maps.google.com/?cid=10242403410560584466,
Tsukishima Monja Kuuya Nagoya Hisayaodori Park,35.1716476,136.9086707,景點,名古屋,JP,http://maps.google.com/?cid=15724544701532937928,
世界的山將 本店,35.1680054,136.9134107,日式料理,名古屋,JP,http://maps.google.com/?cid=6247528068591419659,
熱田蓬萊軒（松阪屋店）,35.164522,136.907932,鰻魚料理,名古屋,JP,http://maps.google.com/?cid=14830168509557160238,
Mori-ya,34.2396613,134.0514987,日式料理,,JP,http://maps.google.com/?cid=7094663818851653487,
烏龍麵一福 國分寺本店,34.3080364,133.9753189,景點,,JP,http://maps.google.com/?cid=5631768043053013375,
Okasen,34.3092903,133.820996,日式料理,,JP,http://maps.google.com/?cid=13162402787490582476,
Mendokoro Wataya Marugame,34.2963123,133.7961602,日式料理,,JP,http://maps.google.com/?cid=10966665367875193285,
TAIRAYA,35.7171943,139.3481331,日式料理,東京,JP,http://maps.google.com/?cid=12712338315949919345,
Sandoria Tonden,43.1350016,141.3383147,日式料理,北海道,JP,http://maps.google.com/?cid=3532324844148434040,
夕鶴,43.1197861,141.3398687,日式料理,北海道,JP,http://maps.google.com/?cid=7202168555816970,
"Yoichiya – Uni Specialty Restaurant, Hokkaido-Yoichi",43.1925169,140.799326,日式料理,北海道,JP,http://maps.google.com/?cid=16050092432156942103,
Nagoyakatei Kitano,43.0129495,141.4496672,日式料理,北海道,JP,http://maps.google.com/?cid=1712506067158383117,
Ajidokoro Tamaoki,42.9660539,141.1661303,日式料理,北海道,JP,http://maps.google.com/?cid=1597459657654957786,
牛助(日式燒肉餐廳),42.5652011,140.8135089,燒肉/燒烤,,JP,http://maps.google.com/?cid=14464439939118228945,
エクスクラメーションベーカリー,42.972399,141.1665847,日式料理,北海道,JP,http://maps.google.com/?cid=5350152068403107130,
蕎麥麵 紅葉亭,42.9677163,141.1673504,蕎麥麵,北海道,JP,http://maps.google.com/?cid=835441972706385678,
Amano Family Farm,42.5802269,141.3203537,日式料理,北海道,JP,http://maps.google.com/?cid=6160613027339962367,
Lake Hill Farm,42.6155325,140.786491,日式料理,,JP,http://maps.google.com/?cid=260280535989566344,
Shiraoi Beef Shop Iwasaki Omotenashi-tei,42.5654084,141.3856505,日式料理,北海道,JP,http://maps.google.com/?cid=8517613581999993932,
Wagyu Yakiniku BBQ Gyuta Honjin LINKS UMEDA Restauraut,34.7038661,135.4959056,燒肉/燒烤,大阪,JP,http://maps.google.com/?cid=7114669842640646760,
矢場丼 矢場町本店,35.1616781,136.9062361,豬排,名古屋,JP,http://maps.google.com/?cid=998878612653937480,
Hitsumabushi Hanaoka,35.1671451,136.9052649,鰻魚料理,名古屋,JP,http://maps.google.com/?cid=7834563016046645259,
麵屋大河,36.5788178,136.6522998,日式料理,,JP,http://maps.google.com/?cid=1046631926684167591,
Tonkatsumasachan Nuttari Honten,37.9245214,139.0660487,豬排,,JP,http://maps.google.com/?cid=14703479564024164850,
Nadai Unatoto,35.7111357,139.7748663,日式料理,東京,JP,http://maps.google.com/?cid=8904068187524217132,
横濱八景島海島樂園,35.336458,139.6452299,日式料理,東京,JP,http://maps.google.com/?cid=4712356050287709511,
Hakata Tempura Takao,35.6620495,139.6991707,天婦羅,東京,JP,http://maps.google.com/?cid=5567198650451243487,
Tendon Kaneko Hannosuke Tsukiji Main Branch,35.6674159,139.770525,日式料理,東京,JP,http://maps.google.com/?cid=2039351146436785011,
權八 西麻布,35.6601742,139.7235797,日式料理,東京,JP,http://maps.google.com/?cid=1337614840498094983,
炸魚餅 籠屋清次郎,35.2324771,139.103133,日式料理,,JP,http://maps.google.com/?cid=17213702932197623048,
Maruhira,42.4533155,141.175331,日式料理,,JP,http://maps.google.com/?cid=5022930386593604892,
とんかつ玉藤 登別店,42.3730468,141.0603651,豬排,,JP,http://maps.google.com/?cid=10736378207596645043,
地域食堂ゆめみ～る,42.4141538,141.1145181,日式料理,,JP,http://maps.google.com/?cid=12463278467365636352,
迴轉壽司 Toriton 平岸店,43.0243804,141.3665081,壽司,北海道,JP,http://maps.google.com/?cid=7773101100054591983,
Kitanotakumihyakuenkurippa Shintomiten,42.6230742,141.570386,日式料理,北海道,JP,http://maps.google.com/?cid=3662409326052612622,
Sumiya,43.7694923,142.3618748,日式料理,,JP,http://maps.google.com/?cid=16832404390012248582,
迴轉壽司 Toriton 圓山店,43.0624065,141.3204304,壽司,北海道,JP,http://maps.google.com/?cid=7075063398402297340,
Uomasa,43.1978419,140.9985657,日式料理,北海道,JP,http://maps.google.com/?cid=16937422294470843851,
拉麵天金 拉麵村店,43.7816475,142.4139865,拉麵,,JP,http://maps.google.com/?cid=9649710262943366374,
天金拉麵 四条店,43.7678054,142.3632508,拉麵,,JP,http://maps.google.com/?cid=12945352166746598361,
小小兔子廚房［香榭總店］特休請看IG,23.974029,121.6075085,台式料理,花蓮,TW,http://maps.google.com/?cid=6059440969656501452,
CARNE,33.264856,131.3563542,日式料理,,JP,http://maps.google.com/?cid=14265249868134328321,
Hakodate Uni Murakami Nippon Life Sapporo Building Store,43.0648623,141.3499018,日式料理,北海道,JP,http://maps.google.com/?cid=18038270948187099917,
みなと食堂,42.6307533,141.6157041,日式料理,北海道,JP,http://maps.google.com/?cid=12016498002518253020,
迴轉壽司 Toriton 旭神店,43.7346535,142.3891144,壽司,,JP,http://maps.google.com/?cid=482937910341357973,
Asahikawa Ramen Aoba-honten,43.766732,142.3611959,拉麵,,JP,http://maps.google.com/?cid=5799002223605603152,
成吉思汗大黑屋,43.7694439,142.3572799,日式料理,,JP,http://maps.google.com/?cid=9047220901540003227,
Lilac,43.0706936,141.3693946,日式料理,北海道,JP,http://maps.google.com/?cid=227453821152833126,
海鮮寿しトリトン 手稲店,43.1258174,141.2425121,海鮮料理,北海道,JP,http://maps.google.com/?cid=11219625177780800892,
泰好吃泰國船麵,25.0138878,121.5334094,泰式料理,台北,TW,http://maps.google.com/?cid=11464030741484438710,
旭川成吉思汗大黑屋 札幌1號店,43.0562872,141.3558649,日式料理,北海道,JP,http://maps.google.com/?cid=3867848181007049944,
旭川成吉思汗大黑屋 札幌2號店,43.0539096,141.3516676,日式料理,北海道,JP,http://maps.google.com/?cid=3112874501631390891,
Gojogen,43.0511046,141.3459097,日式料理,北海道,JP,http://maps.google.com/?cid=4912514413759231137,
迴轉壽司 根室花丸 手稻前田店,43.1277618,141.2557939,壽司,北海道,JP,http://maps.google.com/?cid=7771130929135898717,
Gannen,43.0577927,141.3588598,日式料理,北海道,JP,http://maps.google.com/?cid=17875721006272072141,
SOUP CURRY KING,43.0580822,141.3535597,咖哩/印度,北海道,JP,http://maps.google.com/?cid=11288501125129571132,
神宮茶屋,43.0551016,141.309373,日式料理,北海道,JP,http://maps.google.com/?cid=706266185615535746,
烤牛舌 善治郎 仙台站前本店,38.2619295,140.8805187,日式料理,,JP,http://maps.google.com/?cid=10232609390919022352,
牛たん料理 閣 ブランドーム本店,38.2613274,140.8718628,日式料理,,JP,http://maps.google.com/?cid=16837222147962109236,
Uetai,34.1196926,134.5483706,日式料理,,JP,http://maps.google.com/?cid=7159150040245216073,
天ぷら ご天,33.8360225,132.7629249,天婦羅,,JP,http://maps.google.com/?cid=17705917768124046603,
Ramen shop Kuraki,33.5604852,133.5394091,拉麵,高知,JP,http://maps.google.com/?cid=14938791122352366488,
Myojinmaru Hirome Market Store,33.5604325,133.5358304,日式料理,高知,JP,http://maps.google.com/?cid=685507622552095731,
高知城,33.5608125,133.5314844,日式料理,高知,JP,http://maps.google.com/?cid=1517076722750327054,
隠岐島拉麺,34.6650143,133.9203938,日式料理,,JP,http://maps.google.com/?cid=15421092970639668105,
Hokkaido Soup Curry Restaurant Okushiba Shoten Okushibaa chan,43.0574215,141.3052778,咖哩/印度,北海道,JP,http://maps.google.com/?cid=434423533346375296,
進福炒鱔魚專家,22.9890848,120.2097829,台式料理,台南,TW,http://maps.google.com/?cid=2541445970604582026,
自己的房間,22.9974617,120.2012626,台式料理,台南,TW,http://maps.google.com/?cid=11151166252089808724,
熹湯舖子【台北艋舺店】雞湯 / 蒸蛋 / 滷肉飯 專賣,25.0328874,121.5014962,台式料理,台北,TW,http://maps.google.com/?cid=10103856611296489049,
茶和和 小樽店,43.193651,141.0064044,日式料理,北海道,JP,http://maps.google.com/?cid=9547647696479773466,
FUGU Japanese Gastropub,25.0318009,121.5581535,台式料理,台北,TW,http://maps.google.com/?cid=235036168141185569,
Shima no Hito,42.7868031,141.6817863,日式料理,北海道,JP,http://maps.google.com/?cid=7533408546079962082,
葱屋にょろ助 先斗町店,35.0058551,135.7710613,日式料理,京都,JP,http://maps.google.com/?cid=3964098132917903924,
天ぷら 梵,43.1948114,141.0005891,天婦羅,北海道,JP,http://maps.google.com/?cid=10376241323638502859,
Yabuhan Soba,43.1965111,140.9958367,蕎麥麵,北海道,JP,http://maps.google.com/?cid=15230042664397180745,
Ramen Tokaiya,43.1986846,140.9957857,拉麵,北海道,JP,http://maps.google.com/?cid=4222598841298319950,
若鶏時代 なると 本店,43.2003732,140.9950942,日式料理,北海道,JP,http://maps.google.com/?cid=8896147539216171636,
Kamaei Factory Outlet,43.195798,141.004869,購物,北海道,JP,http://maps.google.com/?cid=16919636097366085168,
湯咖喱 奥芝商店 站前創成寺,43.0667859,141.354339,景點,北海道,JP,http://maps.google.com/?cid=15253944211594759480,
Toriton Kita 8,43.0727363,141.3614178,日式料理,北海道,JP,http://maps.google.com/?cid=1403429751979837764,
Sandria 本店,43.0494283,141.3457879,日式料理,北海道,JP,http://maps.google.com/?cid=8407431263604113708,
札幌啤酒花園,43.0713342,141.3690782,日式料理,北海道,JP,http://maps.google.com/?cid=637930090976473508,
蝦味拉麵 一幻 總本店,43.05127,141.345472,拉麵,北海道,JP,http://maps.google.com/?cid=133821498680476131,
Sushi-Don,43.0568288,141.3501992,壽司,北海道,JP,http://maps.google.com/?cid=13528287860081912187,
千壽,43.0603642,141.3443628,日式料理,北海道,JP,http://maps.google.com/?cid=6029670443761913294,
信玄拉麵,43.0522777,141.3475432,拉麵,北海道,JP,http://maps.google.com/?cid=11307649988743543203,
Teshikaga Ramen,43.0548706,141.3543394,拉麵,北海道,JP,http://maps.google.com/?cid=12372647347263809835,
札幌拉麵 悠,43.0549506,141.3542979,拉麵,北海道,JP,http://maps.google.com/?cid=18191763978182280290,
Tempura Yahei,43.0646532,141.3515215,天婦羅,北海道,JP,http://maps.google.com/?cid=5638432211350854429,
福鼎湯包店,24.9991357,121.5566605,上海料理,台北,TW,http://maps.google.com/?cid=1003294902205359245,
老童小吃部,25.0195528,121.5532037,台式料理,台北,TW,http://maps.google.com/?cid=10484112484394723567,
Garden House Family sushi,43.186025,140.7972959,景點,北海道,JP,http://maps.google.com/?cid=2850714405549766547,
Marutoma Shokudo,42.6293918,141.6168716,日式料理,北海道,JP,http://maps.google.com/?cid=4039739176249433927,
魚金食堂,42.6298623,141.6158885,日式料理,北海道,JP,http://maps.google.com/?cid=9690915179830403290,
辣一番 札幌拉麵 Susukino,43.0547814,141.3531506,拉麵,北海道,JP,http://maps.google.com/?cid=17605152258301071078,
成吉思汗 薄野 4.4店,43.0548577,141.352447,日式料理,北海道,JP,http://maps.google.com/?cid=17613118764433307011,
Ezoyou,43.0558186,141.3519854,日式料理,北海道,JP,http://maps.google.com/?cid=8650749922116437354,
Suage+ Soup Curry,43.0557369,141.3512699,咖哩/印度,北海道,JP,http://maps.google.com/?cid=10502422655510800755,
Rojiura Curry SAMURAI(湯珈哩）,43.0557952,141.3498962,咖哩/印度,北海道,JP,http://maps.google.com/?cid=4058039057143400356,
喜來登拉麵,43.0568695,141.3492218,拉麵,北海道,JP,http://maps.google.com/?cid=6763357948496035359,
Izakaya rukku & uohei,43.0568518,141.3483492,日式料理,北海道,JP,http://maps.google.com/?cid=2508574383591245754,
Soul Store Sapporo Odori,43.056486,141.347864,日式料理,北海道,JP,http://maps.google.com/?cid=10154109025880058657,
麵屋雪風 薄野本店,43.052337,141.3526813,日式料理,北海道,JP,http://maps.google.com/?cid=17311734638072208550,
拉麵 新,43.0521261,141.3490909,拉麵,北海道,JP,http://maps.google.com/?cid=1672072525365190575,
札幌黑拉麵,43.054225,141.3507499,拉麵,北海道,JP,http://maps.google.com/?cid=6518320640522172868,
鳥貴族 札幌車站南口店,43.0660516,141.3482936,交通節點,北海道,JP,http://maps.google.com/?cid=11984156868812598241,
湯咖哩 Suage4,43.0646993,141.3513804,咖哩/印度,北海道,JP,http://maps.google.com/?cid=4922615771294077315,
麵屋 彩未,43.0352658,141.3819435,日式料理,北海道,JP,http://maps.google.com/?cid=13230786759453686988,
Shabuzen Umedaten,34.6969038,135.4963967,火鍋,大阪,JP,http://maps.google.com/?cid=8518360458873667811,
鰻 山椒 五行 京都,35.0107639,135.7531987,鰻魚料理,京都,JP,http://maps.google.com/?cid=17201407337368505271,
豆花森,25.0292223,121.5614746,台式料理,台北,TW,http://maps.google.com/?cid=4631213592903479818,
Oguma Shoten,43.058311,141.358181,日式料理,北海道,JP,http://maps.google.com/?cid=14332231837987868939,
Nijo Market Sapporo Seafood Donbe,43.0586722,141.3593018,海鮮料理,北海道,JP,http://maps.google.com/?cid=13429710081302807996,
Otaru Ezoya,43.1950186,141.0046839,日式料理,北海道,JP,http://maps.google.com/?cid=13806677011379471206,
Yoichiya,43.1952304,141.0041684,日式料理,北海道,JP,http://maps.google.com/?cid=916865764882820641,
迴轉壽司 Toriton 豐平店,43.0506336,141.3721361,壽司,北海道,JP,http://maps.google.com/?cid=172791602120061703,
活一鮮 南3条店,43.0561486,141.3508188,日式料理,北海道,JP,http://maps.google.com/?cid=10649156200873932661,
湯咖喱 奥芝商店 実家,43.0588175,141.3499365,日式料理,北海道,JP,http://maps.google.com/?cid=4555561406331736458,
Soup Curry GARAKU Sapporo Main Restaurant,43.0583997,141.3588997,咖哩/印度,北海道,JP,http://maps.google.com/?cid=16775367457305999515,
炸豬排 檍 札幌薄野店,43.0567901,141.354808,豬排,北海道,JP,http://maps.google.com/?cid=3620560736395019616,
湯咖哩 Yellow,43.0586116,141.3513887,咖哩/印度,北海道,JP,http://maps.google.com/?cid=6148221728022570627,
黒岩咖哩飯店 本店,43.0604034,141.3443824,住宿,北海道,JP,http://maps.google.com/?cid=3362133266995739800,
Medicineman,43.0443938,141.3435701,日式料理,北海道,JP,http://maps.google.com/?cid=448541617877329935,
富平豬腳,35.0995589,129.027321,台式小吃,釜山,KR,http://maps.google.com/?cid=8734315328597709042,
元祖糖餅，南浦街,35.0988394,129.029148,韓式料理,釜山,KR,http://maps.google.com/?cid=11875067571965763027,
다비치안경 서면점(Davich seomyeon),35.1539892,129.0588848,韓式料理,釜山,KR,http://maps.google.com/?cid=12784894272685768800,
馬山辣燉章蟹.HAEMAKKI醬油蟹,35.160128,129.1665765,海鮮料理,釜山,KR,http://maps.google.com/?cid=1625550975273525390,
牡蠣屋,34.2985395,132.3217038,日式料理,,JP,http://maps.google.com/?cid=14654651940468593869,
Unagi Kushiyaki Izumo,34.7030603,135.4955727,鰻魚料理,大阪,JP,http://maps.google.com/?cid=16948402278081890035,
肉屋肉一 博多店,33.5862991,130.4218915,日式料理,福岡,JP,http://maps.google.com/?cid=8721291864666113538,
홍이네대왕조개전골 본점,35.8602408,128.523037,韓式料理,大邱,KR,http://maps.google.com/?cid=7072404333779354138,
一個男人的烤肉,35.8665296,128.5979348,燒肉/燒烤,大邱,KR,http://maps.google.com/?cid=17636358319834070646,
고상봉,35.1572101,129.0650331,韓式料理,釜山,KR,http://maps.google.com/?cid=8769187674747926892,
Roanu,35.2734242,129.2321682,韓式料理,釜山,KR,http://maps.google.com/?cid=9237705387783333953,
신사꽂게당 해운대점 Haeundae Marinated Crab – Korean Gejang Restaurant | 海雲台ケジャン専門店｜韓国カニ料理,35.1597081,129.1595155,海鮮料理,釜山,KR,http://maps.google.com/?cid=16587963154613251973,
Yakiniku AGITO HIRAO,33.5732751,130.4044243,燒肉/燒烤,福岡,JP,http://maps.google.com/?cid=14437771722424606970,
腸子酒館 風土.札幌車站前店,43.0667978,141.3532223,交通節點,北海道,JP,http://maps.google.com/?cid=3525233140899376374,
Konayuki Tonton Eniwa,42.8897946,141.5690148,日式料理,北海道,JP,http://maps.google.com/?cid=7590403310595926431,
海味はちきょう,43.056426,141.3540182,日式料理,北海道,JP,http://maps.google.com/?cid=4951280935922912116,
蛯天分店（三越）,43.0581795,141.3514813,日式料理,北海道,JP,http://maps.google.com/?cid=14278792051805802903,
新羅食堂 （鐵板辣炒章魚）,35.8693285,128.5942113,韓式料理,大邱,KR,http://maps.google.com/?cid=15952800806693490754,
元祖老奶奶湯飯,35.8970945,128.6380673,韓式料理,大邱,KR,http://maps.google.com/?cid=10001961765760377669,
浜屋沖繩麵,26.3293112,127.744315,日式料理,沖繩,JP,http://maps.google.com/?cid=12045287017928494962,
銀座 佐藤養助,35.6714522,139.7615542,日式料理,東京,JP,http://maps.google.com/?cid=12892562419540071658,
心KOKORO食堂 新日料Food&Bar-台北丼飯 中山美食 行天宮美食 松江美食,25.0611329,121.5347872,台式料理,台北,TW,http://maps.google.com/?cid=14603279567117575149,
二弄燒肉-斗六必吃燒肉|特色燒肉|平價燒肉|燒肉餐廳|燒肉推薦|在地推薦燒肉,23.7069904,120.5402152,燒肉/燒烤,嘉義,TW,http://maps.google.com/?cid=4739631703262420928,
烏達里家,37.5613796,126.9834141,韓式料理,首爾,KR,http://maps.google.com/?cid=8989477628759646476,
DEG 度 韓國燒肉概念,24.1404772,120.6275609,燒肉/燒烤,台中,TW,http://maps.google.com/?cid=15565630077925203544,
Uri Pork Soup Rice,35.1199492,129.0393062,冰品,釜山,KR,http://maps.google.com/?cid=14472215470083075190,
南浦雪濃湯,35.0984667,129.0320586,韓式料理,釜山,KR,http://maps.google.com/?cid=7567923698277093341,
자매국밥,35.158299,129.125699,韓式料理,釜山,KR,http://maps.google.com/?cid=14763605508582467853,
圓泰式料理,25.0639407,121.4993218,泰式料理,台北,TW,http://maps.google.com/?cid=701480352106800376,
金春喜韓廚-台北長一店,25.0482186,121.5401659,台式料理,台北,TW,http://maps.google.com/?cid=3809063735309074741,
双豚ラーメン,25.0274807,121.4651899,拉麵,台北,TW,http://maps.google.com/?cid=1662767501246430134,
巨松燉排骨,35.867367,128.5909394,韓式料理,大邱,KR,http://maps.google.com/?cid=5521837703356438138,
황금장어 제주본점,33.4837384,126.4846085,韓式料理,濟州,KR,http://maps.google.com/?cid=12246482075947172472,
鴨箱｜日式炙燒鴨肉飯,25.030273,121.553359,台式料理,台北,TW,http://maps.google.com/?cid=3439849110559990762,
麺処田冶,25.039517,121.5523125,台式料理,台北,TW,http://maps.google.com/?cid=13651717536698103916,
하여금 흑돼지 전문점,33.4850855,126.4824952,韓式料理,濟州,KR,http://maps.google.com/?cid=11727659949245234933,
고깃집돈누리,33.4855236,126.4876149,韓式料理,濟州,KR,http://maps.google.com/?cid=18424302606554137512,
三姓穴海鮮鍋삼성혈해물탕,33.487989,126.49977,海鮮料理,濟州,KR,http://maps.google.com/?cid=10012107660815598683,
88 Pork,33.4893284,126.4895668,韓式料理,濟州,KR,http://maps.google.com/?cid=9773326851992384900,
홍대개미 제주노형점,33.483881,126.4795812,韓式料理,濟州,KR,http://maps.google.com/?cid=615109609178677875,
Eun-hee Haejangguk(Hangover Soup),33.4852312,126.4847347,韓式料理,濟州,KR,http://maps.google.com/?cid=562589920633102401,
二月半,25.053597,121.522136,台式料理,台北,TW,http://maps.google.com/?cid=11286059967822470819,
真劍拉麵,25.021666,121.5278964,拉麵,台北,TW,http://maps.google.com/?cid=15873499252613428986,
蒝山拉麵,25.0372962,121.5463333,拉麵,台北,TW,http://maps.google.com/?cid=4791914518792953352,
桂師傅,25.0430516,121.5424488,台式料理,台北,TW,http://maps.google.com/?cid=16855015732225491356,
三民大飯店,24.8013961,121.7650688,住宿,宜蘭,TW,http://maps.google.com/?cid=1913506620433773219,
The Slice Shop 信義安和,25.0303893,121.5528951,冰品,台北,TW,http://maps.google.com/?cid=17546814699273972097,
四米大石鍋拌飯專賣,25.0537538,121.5208166,台式料理,台北,TW,http://maps.google.com/?cid=12308065410305040038,
なごやか亭 Nagoyaka亭 發寒店,43.0885011,141.2798386,日式料理,北海道,JP,http://maps.google.com/?cid=3234006910516725654,
迴轉壽司 根室花丸 JR Tower Stellar Place店,43.0679281,141.3501447,景點,北海道,JP,http://maps.google.com/?cid=5164715388780302898,
水果蛋糕 KINOTOYA,43.061419,141.352291,甜點,北海道,JP,http://maps.google.com/?cid=364283731916036687,
札幌卡蘇拉麵和天婦羅風土。博多中洲店,33.592551,130.4062879,拉麵,福岡,JP,http://maps.google.com/?cid=1546047307929706876,
燒肉 大東園 本店,33.592771,130.411436,燒肉/燒烤,福岡,JP,http://maps.google.com/?cid=7561051545393915502,
천장어 제주,33.4788708,126.4805989,韓式料理,濟州,KR,http://maps.google.com/?cid=8026101843451352856,
Jeju Gommak Restaurant,33.556821,126.720503,韓式料理,濟州,KR,http://maps.google.com/?cid=6231426386115345639,
Paik's Coffee & Bakery Sasu,33.5092672,126.47675,麵包坊,濟州,KR,http://maps.google.com/?cid=4971670969062290784,
Audrant Bakery,33.5420828,126.671551,麵包坊,濟州,KR,http://maps.google.com/?cid=2138997668074867754,
曹料理,25.0307174,121.559374,台式料理,台北,TW,http://maps.google.com/?cid=7797852621846785795,
依鼎越式美食,25.0295782,121.5615026,台式料理,台北,TW,http://maps.google.com/?cid=4505062728839256707,
Meat Love橡木炭火韓國烤肉 信義店,25.0328911,121.5591635,燒肉/燒烤,台北,TW,http://maps.google.com/?cid=6332621020406384686,
丸舢拉麵 市府店,25.0415895,121.5654095,拉麵,台北,TW,http://maps.google.com/?cid=13294428349241161717,
楊仔頭羊肉爐,23.9575033,120.4828567,羊肉爐,台中,TW,http://maps.google.com/?cid=1498499152269755895,
Fukuchian - Nijō-jō-mae,35.0112712,135.7523096,日式料理,京都,JP,http://maps.google.com/?cid=13399436729407763006,
燒肉三六苑｜40年正宗日本魂！真正美味的最強傳統日式燒肉/台北美食/燒肉/restaurants,25.0302574,121.5531375,燒肉/燒烤,台北,TW,http://maps.google.com/?cid=10383948524371120233,
泰福泰式料理信義店,25.031959,121.55979,泰式料理,台北,TW,http://maps.google.com/?cid=55227629343846739,
三姓穴鮑魚海鮮湯分店,33.5038914,126.4653931,海鮮料理,濟州,KR,http://maps.google.com/?cid=3097643666737192793,
P.ARK,35.0862015,129.076151,其他,,JP,http://maps.google.com/?cid=15661325924694665620,
국수명가,35.1718139,129.1100769,韓式料理,釜山,KR,http://maps.google.com/?cid=6886165893440445936,
Suyeong Bonga Dwaeji-gukbap,35.1559205,129.0584735,韓式料理,釜山,KR,http://maps.google.com/?cid=14311116424232603231,
媽媽醬蟹,35.1035099,129.0351385,海鮮料理,釜山,KR,http://maps.google.com/?cid=2673304274305191711,
元祖奶奶章魚,35.142154,129.060169,韓式料理,釜山,KR,http://maps.google.com/?cid=6085948272773152797,
Seomyeon Gop,35.1571075,129.0573212,韓式料理,釜山,KR,http://maps.google.com/?cid=14455168008300596868,
Matchandeul Wang Sogeumgui,35.1554917,129.0556616,抹茶甜點,釜山,KR,http://maps.google.com/?cid=10128160011307536382,
松亭3代豬肉湯飯,35.1556037,129.0585412,韓式料理,釜山,KR,http://maps.google.com/?cid=16690945467578779045,
彥陽烤牛肉釜山家,35.1478022,129.113475,韓式料理,釜山,KR,http://maps.google.com/?cid=6434751662107900609,
豚舍豚,33.4816107,126.4708157,韓式料理,濟州,KR,http://maps.google.com/?cid=4848892538023993737,
燒肉 琉球の牛 恩納店,26.4519972,127.8056266,燒肉/燒烤,沖繩,JP,http://maps.google.com/?cid=14508976097973711902,
제주통큰장어,33.5016454,126.5422459,韓式料理,濟州,KR,http://maps.google.com/?cid=5702129720198219632,
洪家𩵚魠魚焿魷魚焿蝦仁焿,22.6811187,120.491828,台式料理,高雄,TW,http://maps.google.com/?cid=11898067522277411971,
牛肉亮,22.539576,120.5387445,台式料理,高雄,TW,http://maps.google.com/?cid=55180125751310176,
黃記牛雜,22.6519785,120.4868902,台式料理,高雄,TW,http://maps.google.com/?cid=16642037194729317963,
潮州芋見泥,22.548677,120.539337,台式料理,高雄,TW,http://maps.google.com/?cid=15522626978416248264,
東港邱家雙糕潤,22.4668048,120.4505142,台式料理,高雄,TW,http://maps.google.com/?cid=16504464953211207577,
海明星生魚片專賣店,22.4680924,120.4438752,其他,高雄,TW,http://maps.google.com/?cid=9221511540479099744,
阿秀小吃部牛肉麵,22.666468,120.465105,台式料理,高雄,TW,http://maps.google.com/?cid=1626723630008037949,
華記薏仁豆花（店休日公告粉專）,22.6839133,120.4980427,台式料理,高雄,TW,http://maps.google.com/?cid=11937948179372970841,
阿基伯冰店,22.5865092,120.4898659,冰品,高雄,TW,http://maps.google.com/?cid=4295177359808489303,
(黃)萬丹紅豆餅,22.5836201,120.4877625,台式料理,高雄,TW,http://maps.google.com/?cid=3662564762668261863,
安家飯湯,22.4680944,120.4592523,台式料理,高雄,TW,http://maps.google.com/?cid=15544012490399208340,
愛嬌姨海產粥 飯湯,22.4881402,120.4413476,台式小吃,高雄,TW,http://maps.google.com/?cid=2682226070594907740,
古早味飯湯,22.4628085,120.4451736,台式料理,高雄,TW,http://maps.google.com/?cid=10269077147041329395,
社皮飯湯,22.6154969,120.4679522,台式料理,高雄,TW,http://maps.google.com/?cid=14322100250772432391,
美菊麵包店,22.6754133,120.4869484,景點,高雄,TW,http://maps.google.com/?cid=13759541156167816154,
民族夜市𩵚魠魚焿,22.6698288,120.4896247,景點,高雄,TW,http://maps.google.com/?cid=6758618466371873234,
上好佳客式炒粄條,22.5509693,120.5406726,台式料理,高雄,TW,http://maps.google.com/?cid=8099362805467154780,
李家肉圓,22.6800707,120.4925485,台式小吃,高雄,TW,http://maps.google.com/?cid=4742289847815448268,
李家肉圓,22.625026,120.368001,台式小吃,高雄,TW,http://maps.google.com/?cid=6723381728240699582,
東港正宗肉丸,22.4674475,120.4510418,台式料理,高雄,TW,http://maps.google.com/?cid=17616289961536224815,
萬丹阿慧飯湯,22.5885757,120.4914174,台式料理,高雄,TW,http://maps.google.com/?cid=13270876266040796082,
蔡家麵館,22.6786691,120.4718994,台式料理,高雄,TW,http://maps.google.com/?cid=1930158398864779875,
傘兵旗魚黑輪,22.6686888,120.4741221,台式料理,高雄,TW,http://maps.google.com/?cid=9531895781389516234,
歸來肉圓老店,22.6610244,120.5066869,台式小吃,高雄,TW,http://maps.google.com/?cid=17304739230618341527,
愛家臭豆腐,22.6689692,120.5108804,台式小吃,高雄,TW,http://maps.google.com/?cid=10375818983282432455,
秋林牛乳大王,22.6719409,120.4829974,台式料理,高雄,TW,http://maps.google.com/?cid=15063972307039073178,
丹丹漢堡建國店,22.6653629,120.4795604,台式料理,高雄,TW,http://maps.google.com/?cid=467837748003302602,
六堆客家文化園區,22.6595692,120.5568572,台式料理,高雄,TW,http://maps.google.com/?cid=11553897082425727737,
潮州牛肉福 創始店,22.5504513,120.5394514,台式料理,高雄,TW,http://maps.google.com/?cid=6625638511278010507,
林記肉粿,22.4652099,120.451079,台式料理,高雄,TW,http://maps.google.com/?cid=458461403311060951,
佳吉碳烤饅頭,22.4675871,120.4504603,台式料理,高雄,TW,http://maps.google.com/?cid=16044547113462773388,
葉家肉粿,22.4648797,120.4489325,台式料理,高雄,TW,http://maps.google.com/?cid=9179231574269041490,
福灣巧克力 FuWan Chocolate,22.4589117,120.482624,台式料理,高雄,TW,http://maps.google.com/?cid=15805336578716528781,
大叔叔廚房,22.3682834,120.5935615,台式料理,高雄,TW,http://maps.google.com/?cid=10091124643060545597,
林媽媽綠豆蒜,22.0722222,120.7125,台式料理,,TW,http://maps.google.com/?cid=12625413280058487277,
正記 黃家綠豆蒜,22.0702841,120.7129428,台式料理,,TW,http://maps.google.com/?cid=10554203598639739269,
正老牌潮州冷熱冰,22.5513571,120.5399976,冰品,高雄,TW,http://maps.google.com/?cid=3671285243954900114,
文記肉圓,22.551206,120.5404486,台式小吃,高雄,TW,http://maps.google.com/?cid=5287632826844725209,
百年老店 阿婆炒粿仔,22.5486673,120.539717,台式料理,高雄,TW,http://maps.google.com/?cid=9106047140211879199,
阿卿姐飯湯,22.4599814,120.4506972,台式料理,高雄,TW,http://maps.google.com/?cid=3642807676840479209,
蔣老爹愛吃鍋,25.0443391,121.551251,台式料理,台北,TW,http://maps.google.com/?cid=9594098144910895399,
如意堂家常菜,25.0846195,121.5215797,台式料理,台北,TW,http://maps.google.com/?cid=4995248979906218822,
阿興生魚片/A-Shin Sashi mi,21.9515513,120.7408959,台式料理,,TW,http://maps.google.com/?cid=18123734991712112724,
秀英肉粿,22.4722009,120.4601825,台式料理,高雄,TW,http://maps.google.com/?cid=17533187388434715321,
牛大福｜屏東潮州 全牛料理、沙茶火鍋,22.554949,120.5372793,火鍋,高雄,TW,http://maps.google.com/?cid=9963243765584784670,
魚君 さかなくん 總本店,25.0394444,121.5552778,台式料理,台北,TW,http://maps.google.com/?cid=4807816268650094009,
臨洋港生猛活海鮮長安店,25.0482986,121.5290074,海鮮料理,台北,TW,http://maps.google.com/?cid=6383387855649059152,
香港鑫華茶餐廳,25.0315368,121.5285299,港式冰室,台北,TW,http://maps.google.com/?cid=16171768365394638089,
山海豆花,25.0292166,121.5297367,台式料理,台北,TW,http://maps.google.com/?cid=13620648875939891987,
好公道金雞園,25.0307503,121.529454,台式料理,台北,TW,http://maps.google.com/?cid=12443558991049001938,
湮鯱,25.044533,121.5431592,台式料理,台北,TW,http://maps.google.com/?cid=6231826681935073427,
林美如 海鮮 熱炒 燒烤 酒場,25.044994,121.5427726,海鮮料理,台北,TW,http://maps.google.com/?cid=10875611888787668258,
Melting Finger 韓國馬卡龍專賣店(忠孝店),25.0432342,121.5444385,韓式料理,台北,TW,http://maps.google.com/?cid=11860253608552696814,
宜蘭口福 小籠湯包 宜蘭在地美食,24.7488063,121.7487315,上海料理,宜蘭,TW,http://maps.google.com/?cid=6449152820324848349,
Bagel Land,37.5554873,126.9259767,韓式料理,首爾,KR,http://maps.google.com/?cid=8538013798553572912,
豚壽百,37.5568766,126.9252693,韓式料理,首爾,KR,http://maps.google.com/?cid=8654896397275182277,
輕靚美 健康餐盒x機能蔬果飲 信義世貿店 排毒瘦身LINE開團,25.0318475,121.5581986,台式料理,台北,TW,http://maps.google.com/?cid=9823269015867174030,
路易奇電力公司 復興電廠,25.0443179,121.5443903,台式料理,台北,TW,http://maps.google.com/?cid=3749327556087747341,
多摩食堂,25.110864,121.5301959,台式料理,台北,TW,http://maps.google.com/?cid=10312936600117429438,
暮煙muyan yakiniku,25.0573745,121.5242121,燒肉/燒烤,台北,TW,http://maps.google.com/?cid=7730034200115259395,
83獬豸,35.1580029,129.0611124,韓式料理,釜山,KR,http://maps.google.com/?cid=7659985917474245629,
Hyodonsig,33.2634774,126.6210915,韓式料理,濟州,KR,http://maps.google.com/?cid=2539021226027162245,
菜板豚,33.5155556,126.5266667,韓式料理,濟州,KR,http://maps.google.com/?cid=8173272112683596569,
BT BURGER.新地點裝潢中，裝潢好會再另行公告🙏🏻感謝,25.0668183,121.4979605,台式料理,台北,TW,http://maps.google.com/?cid=3167150171885031163,
梨花大苑이화대원/高品質吃到飽《美食推薦》炭火燒肉｜親子餐廳｜淡水觀光｜聚餐場地｜生日推薦｜約會餐廳｜寵物友善｜捷運美食｜,25.1704526,121.4490773,交通節點,台北,TW,http://maps.google.com/?cid=354796587117902689,
參元豚研究所,24.1157028,120.6760568,台式料理,台中,TW,http://maps.google.com/?cid=9097417440579758032,
Doldam Black Pork,33.486769,126.4908622,韓式料理,濟州,KR,http://maps.google.com/?cid=11640732496179480871,
熟成到(濟州總店),33.4873082,126.4891975,韓式料理,濟州,KR,http://maps.google.com/?cid=5854162730820845842,
喫飯食堂,25.032338,121.529477,台式料理,台北,TW,http://maps.google.com/?cid=17120914619003283662,
穀雨鳥甜點工作室,25.048396,121.54148,甜點,台北,TW,http://maps.google.com/?cid=16981409245409108065,
集客人間茶館-三越店,25.0513879,121.521592,台式料理,台北,TW,http://maps.google.com/?cid=3596290414060850576,
王記排骨酥湯,25.0255496,121.5172262,台式料理,台北,TW,http://maps.google.com/?cid=16639033033986971192,
魚仔麵（鯛白湯),25.0623505,121.5246992,台式料理,台北,TW,http://maps.google.com/?cid=11240587707591841302,
峨嵋川菜餐廳,25.0154042,121.5325493,台式料理,台北,TW,http://maps.google.com/?cid=5454511776552876943,
金嘟美食站,25.0070592,121.5228937,台式料理,台北,TW,http://maps.google.com/?cid=6351244173018878970,
台灣鮮魚湯復國店,23.0100934,120.2463043,台式料理,台南,TW,http://maps.google.com/?cid=3559469090578447563,
阿埔哩臭豆腐,23.0007669,120.2566859,台式小吃,台南,TW,http://maps.google.com/?cid=7254317026635463752,
捷克公寓,25.022175,121.5543671,台式料理,台北,TW,http://maps.google.com/?cid=4114786674779444358,
波濤小料理｜新*炸雞丼｜厚切炸豬排 • 丼飯,25.0205165,121.5524211,豬排,台北,TW,http://maps.google.com/?cid=13905835628339514611,
一丁堂拉麵,25.0221193,121.550258,拉麵,台北,TW,http://maps.google.com/?cid=12565173849484094503,
花娘小館（創始店）,25.0548637,121.5505647,台式料理,台北,TW,http://maps.google.com/?cid=17779556962795561145,
忠南飯館,25.0375693,121.539034,台式料理,台北,TW,http://maps.google.com/?cid=12805082419547874405,
Celebread,25.0342007,121.5514139,麵包坊,台北,TW,http://maps.google.com/?cid=1567267029423546899,
溫州街蘿蔔絲餅達人,25.0262472,121.5303704,台式料理,台北,TW,http://maps.google.com/?cid=14220416684892591338,
陳記燒臘,25.0399657,121.5322982,港式/粵菜,台北,TW,http://maps.google.com/?cid=18168763201356692850,
芝鄉涼麵,25.0255244,121.5450476,台式料理,台北,TW,http://maps.google.com/?cid=3680479522726671787,
拉麵魚堺-大安店,25.0266536,121.5394228,拉麵,台北,TW,http://maps.google.com/?cid=7358334707964100239,
排隊拉麵 人類みな麵類,34.7255026,135.499257,拉麵,大阪,JP,http://maps.google.com/?cid=6418836266917594457,
湘民小館,25.0495346,121.5551648,台式料理,台北,TW,http://maps.google.com/?cid=8263101820733687390,
山東小館,24.9735069,121.5313709,台式料理,台北,TW,http://maps.google.com/?cid=4673981156985135059,
旺旺來泰味小吃、泰式料理（ร้านหงส์ไทย อาหารตามสั่ง）各式東南亞泰國雜貨,24.1768418,120.5054467,泰式料理,台中,TW,http://maps.google.com/?cid=8177553011065631717,
硫磺 Sulfur｜咖啡｜奶昔｜美式療癒食物｜早午餐｜法國吐司｜寵物友善,25.0406509,121.5514033,咖啡廳,台北,TW,http://maps.google.com/?cid=3973476501595638467,
從這裡開始燒肉 難波店,34.6635353,135.5026748,燒肉/燒烤,大阪,JP,http://maps.google.com/?cid=2803295045817613867,
Mako and Yasube Seafood restaurant,41.772713,140.72557,海鮮料理,,JP,http://maps.google.com/?cid=8112174155256162790,
台韓民國 韓式燒肉店,25.0424395,121.5527265,燒肉/燒烤,台北,TW,http://maps.google.com/?cid=14672840419335683386,
胃太小私房菜,25.1029514,121.5233795,台式料理,台北,TW,http://maps.google.com/?cid=17906242662234299992,
有有1969,25.0490296,121.542072,台式料理,台北,TW,http://maps.google.com/?cid=14149054633695520397,
川珍鰻魚專賣店,25.1112513,121.5296298,鰻魚料理,台北,TW,http://maps.google.com/?cid=17778149785815535120,
unDer lab,25.0387838,121.5555312,台式料理,台北,TW,http://maps.google.com/?cid=14432597221323992190,
The Fridge bar,25.0359459,121.5577753,台式料理,台北,TW,http://maps.google.com/?cid=9237406703925313991,
Kashoku,25.0281937,121.5504379,台式料理,台北,TW,http://maps.google.com/?cid=7823800191178186359,
楊婆婆麵粉煎豆花,24.7503478,121.7505826,台式料理,宜蘭,TW,http://maps.google.com/?cid=13145334460741984562,
Arang雅朗韓食堂,25.0073648,121.5127674,台式料理,台北,TW,http://maps.google.com/?cid=17949848609147510105,
老張家自助石頭火鍋-台北石頭火鍋 台北宵夜 松山美食 松山火鍋 松山鍋物 南京三民美食,25.048108,121.5586394,火鍋,台北,TW,http://maps.google.com/?cid=15753980241744415624,
拉麵 辻,34.6828222,135.5158505,拉麵,大阪,JP,http://maps.google.com/?cid=95778445716286493,
DOTONBORI KUROFUNE Nagahoribashi,34.6732312,135.5054735,日式料理,大阪,JP,http://maps.google.com/?cid=18143938791038519204,
純情酒場ロマンス お初天神店,34.7004068,135.5004888,日式料理,大阪,JP,http://maps.google.com/?cid=7689579830549797846,
ABC-MART GRAND STAGE UMEDA Shop,34.7047808,135.4995344,日式料理,大阪,JP,http://maps.google.com/?cid=16649365010930419719,
Makino 難波千日前店,34.6664593,135.5019007,日式料理,大阪,JP,http://maps.google.com/?cid=15203998873125917188,
Gyukatsu Tomita,34.6627484,135.5039325,日式料理,大阪,JP,http://maps.google.com/?cid=5283956538724007843,
Tori Soba ZAGIN Main Shop,34.6896133,135.4950563,蕎麥麵,大阪,JP,http://maps.google.com/?cid=6838999796133111039,
Onigiri Gorichan,34.6758595,135.5021961,日式料理,大阪,JP,http://maps.google.com/?cid=17789062171442119345,
千代松勝蓋飯,34.6682661,135.5052931,日式料理,大阪,JP,http://maps.google.com/?cid=5566763727910966840,
Takoyaki Wanaka Dotonbori,34.6687742,135.5027298,日式料理,大阪,JP,http://maps.google.com/?cid=2130839552230731987,
Ramen KAZUYA,34.6640596,135.5062143,拉麵,大阪,JP,http://maps.google.com/?cid=4736180474910781539,
超豚骨 濃度8,34.6671348,135.5102707,日式料理,大阪,JP,http://maps.google.com/?cid=6945570105545664609,
若狹家 南海難波店,34.6651898,135.5024171,日式料理,大阪,JP,http://maps.google.com/?cid=4938633323806765719,
Kamaiki,34.6829636,135.8288214,日式料理,奈良,JP,http://maps.google.com/?cid=7976139392387424657,
宇治上神社,34.8919274,135.8112954,景點,京都,JP,http://maps.google.com/?cid=1252017123913850719,
烤肉 馬烏姆 京都木屋町店,35.0071771,135.7699247,燒肉/燒烤,京都,JP,http://maps.google.com/?cid=16734595448149708546,
京都 炸牛 元村 三條河原町店,35.0088415,135.7711361,日式料理,京都,JP,http://maps.google.com/?cid=17235762352346297654,
neel nakazakicho,34.7087745,135.5034573,日式料理,大阪,JP,http://maps.google.com/?cid=17952910838583353217,
Kyoto Tonkatsu Katsuda Shijo Kawaramachi,35.0023084,135.7694669,豬排,京都,JP,http://maps.google.com/?cid=9939499206553147358,
Kyoto Tonkatsu Katsuda Shijokarasuma,35.0012535,135.7594566,豬排,京都,JP,http://maps.google.com/?cid=12620070692181449152,
Shinagawa-tei,35.0048494,135.7638958,日式料理,京都,JP,http://maps.google.com/?cid=3412043158272635594,
游玄亭 京都 (敘敘苑旗下),35.0038857,135.7627241,日式料理,京都,JP,http://maps.google.com/?cid=7539679955670044693,
Kamehameha,35.0056588,135.7667325,日式料理,京都,JP,http://maps.google.com/?cid=5296717786896467454,
Kamose Coffee Market,35.0038463,135.7673249,咖啡廳,京都,JP,http://maps.google.com/?cid=13182067890654707376,
HOO Kyoto,35.0161371,135.7532335,日式料理,京都,JP,http://maps.google.com/?cid=13380409145319011743,
Kyo no Ajitokoro Uemura,34.996638,135.781325,日式料理,京都,JP,http://maps.google.com/?cid=14706845644219677496,
五穀豐收的茶屋飯 五木茶屋 清水店,34.9980747,135.7807717,日式料理,京都,JP,http://maps.google.com/?cid=629456816888359136,
GOKAGO,34.9956509,135.7818524,日式料理,京都,JP,http://maps.google.com/?cid=9995371556413413334,
loose kyoto,34.9970551,135.7790149,日式料理,京都,JP,http://maps.google.com/?cid=17982665652019351174,
% ARABICA 京都藤井大丸店,35.003348,135.766698,咖啡廳,京都,JP,http://maps.google.com/?cid=2112438859294084051,
Pan nochi Hare,35.0440781,135.7869043,日式料理,京都,JP,http://maps.google.com/?cid=2557483575797074795,
koé donuts 京都,35.0042538,135.7672811,日式料理,京都,JP,http://maps.google.com/?cid=17206890635769598935,
Kurasu Kyoto Stand,34.9863776,135.7538511,日式料理,京都,JP,http://maps.google.com/?cid=6876186519374092049,
POOH,34.9875781,135.7550694,日式料理,京都,JP,http://maps.google.com/?cid=2482426143198132300,
COYOTE the ordinary shop,34.986431,135.7554854,日式料理,京都,JP,http://maps.google.com/?cid=7511719627789971096,
Flip up!,35.012348,135.7582654,日式料理,京都,JP,http://maps.google.com/?cid=1433691585870325580,
伍拾壹製麵所 IKR51,34.6765979,135.5010851,日式料理,大阪,JP,http://maps.google.com/?cid=3869195006483375875,
Yakiniku Kitan Hozenji,34.6682611,135.5024138,燒肉/燒烤,大阪,JP,http://maps.google.com/?cid=13140825946052633429,
Onigiri Gorichan,34.7071179,135.5058786,日式料理,大阪,JP,http://maps.google.com/?cid=5273802679295432360,
Gyutan Charcoal grilled YOSHIJI Shinsaibashi branch,34.671683,135.50205,日式料理,大阪,JP,http://maps.google.com/?cid=4744756988361089619,
Onimaru Kyoto Shijo Kawaramachi,35.0038296,135.7674332,日式料理,京都,JP,http://maps.google.com/?cid=12250165653626586099,
前田珈琲 室町本店,35.0062102,135.7592874,咖啡廳,京都,JP,http://maps.google.com/?cid=16397860348723476741,
Takomasu,35.0061144,135.7670726,日式料理,京都,JP,http://maps.google.com/?cid=8789508917722913252,
一保堂茶舖 京都本店,35.0144485,135.7673381,日式料理,京都,JP,http://maps.google.com/?cid=15086512250717214680,
麵屋 豬一 離れ,34.9999817,135.763261,日式料理,京都,JP,http://maps.google.com/?cid=9308459117682630403,
Maruki Bakery,34.9986932,135.7503047,麵包坊,京都,JP,http://maps.google.com/?cid=16849004629883831225,
Chikasada,34.9806707,135.9088252,日式料理,京都,JP,http://maps.google.com/?cid=5594718431950646598,
Tenyou Yamashina,34.9910185,135.8159741,日式料理,京都,JP,http://maps.google.com/?cid=4874857636368989417,
Kazariya,35.045185,135.742778,日式料理,京都,JP,http://maps.google.com/?cid=8528943179837976855,
Kyo Unawa Honten,35.0042843,135.7635572,日式料理,京都,JP,http://maps.google.com/?cid=4002677151990378306,
Gorichan,34.7037239,135.5032994,日式料理,大阪,JP,http://maps.google.com/?cid=17877513488187555451,
soba MAREN Nakazakityo,34.7066902,135.5040077,蕎麥麵,大阪,JP,http://maps.google.com/?cid=6308963655462019790,
烏龍麵屋 きすけ,34.7093633,135.5014799,烏龍麵,大阪,JP,http://maps.google.com/?cid=10066177275254514697,
grenier Umeda branch,34.7035422,135.4991909,日式料理,大阪,JP,http://maps.google.com/?cid=4885162933966756039,
Ramen Great War Senba Shinsaibashi Branch,34.6791322,135.5015166,拉麵,大阪,JP,http://maps.google.com/?cid=8915440512334384111,
MUGEN Ramen Shinsaibashi Store,34.677504,135.5015626,拉麵,大阪,JP,http://maps.google.com/?cid=13729075848653212176,
鳶人海鮮豚骨拉麵（原麵嶼魚）,25.1281003,121.7403302,拉麵,基隆,TW,http://maps.google.com/?cid=9517167481077224473,
火紅手桿麵,25.0204019,121.5541516,台式料理,台北,TW,http://maps.google.com/?cid=9199469088921485221,
蘇阿姨比薩屋,25.0391419,121.5574355,台式料理,台北,TW,http://maps.google.com/?cid=5753864442734266646,
麵屋鶴立,25.0535571,121.5185093,台式料理,台北,TW,http://maps.google.com/?cid=3958736768808419216,
藍瓶咖啡 梅田茶屋町店,34.7078018,135.4982278,咖啡廳,大阪,JP,http://maps.google.com/?cid=4517156398101501590,
燒肉の名門 赤虎-信義安和店,25.033807,121.5527774,燒肉/燒烤,台北,TW,http://maps.google.com/?cid=10858382462277704466,
千日前道具屋筋商店街,34.6640141,135.5035063,其他,大阪,JP,http://maps.google.com/?cid=17351108576031900875,
燒肉力丸_千日前店,34.6668024,135.5034218,燒肉/燒烤,大阪,JP,http://maps.google.com/?cid=6633647692440524464,
烧肉麻吕 心斋桥店,34.6718433,135.5058198,日式料理,大阪,JP,http://maps.google.com/?cid=2474908286054928800,
和牛焼肉モウモウ 南堀江店,34.6716628,135.4937964,燒肉/燒烤,大阪,JP,http://maps.google.com/?cid=3529873296434554135,
Shokudo Days,35.0022493,135.7695881,日式料理,京都,JP,http://maps.google.com/?cid=2582706877825309694,
藍瓶 京都店,35.0113797,135.7894944,日式料理,京都,JP,http://maps.google.com/?cid=4994698723508320687,
芝玫蛋糕店,25.1075897,121.5276666,甜點,台北,TW,http://maps.google.com/?cid=1078267040505832838,
一頭牛日式燒肉 清酒 公益店-南屯必吃燒烤|人氣燒肉|熱門燒肉|必吃燒肉|特色燒肉|燒肉首選|燒肉專門店|在地推薦餐廳,24.1510029,120.6476787,燒肉/燒烤,台中,TW,http://maps.google.com/?cid=15114916852536441074,
Hyoki Shabu-shabu Ginza Main Store,35.666807,139.7651701,火鍋,東京,JP,http://maps.google.com/?cid=7574950733378578132,
壽司三昧,35.6676995,139.7723854,壽司,東京,JP,http://maps.google.com/?cid=6932903109591816067,
"Tsukiji Sushicho, Main Store",35.6678345,139.7725646,壽司,東京,JP,http://maps.google.com/?cid=3055242160569654536,
Tsumugi,35.6672304,139.7723019,景點,東京,JP,http://maps.google.com/?cid=8946095540022070834,
Tsukiji Unitora Nakadori,35.6655793,139.7705094,日式料理,東京,JP,http://maps.google.com/?cid=7867844631688192504,
Tsukiji Itadori Bekkan,35.665613,139.7703696,日式料理,東京,JP,http://maps.google.com/?cid=5124312734786734946,
Taneichi,35.6657285,139.7701398,日式料理,東京,JP,http://maps.google.com/?cid=17550228061363924986,
Tsukiji Kanno｜Sushi Kaisen Omakase,35.6658557,139.7700083,壽司,東京,JP,http://maps.google.com/?cid=13975953238522131833,
築地牛武 TSUKIJI USHITAKE,35.6652598,139.7698804,日式料理,東京,JP,http://maps.google.com/?cid=2070360733613975283,
黑銀鮪屋,35.6653156,139.769844,日式料理,東京,JP,http://maps.google.com/?cid=8431770654714236915,
築地壽司清 築地新館,35.6652455,139.7709061,壽司,東京,JP,http://maps.google.com/?cid=16064823604115379389,
MATCHA STAND MARUNI 東京築地,35.6651248,139.7710357,抹茶甜點,東京,JP,http://maps.google.com/?cid=15615198792895363108,
Hokkai Banya,35.6649013,139.7707299,日式料理,東京,JP,http://maps.google.com/?cid=6738326555421003066,
鮨國,35.6648623,139.7706727,壽司,東京,JP,http://maps.google.com/?cid=8026928846518979703,
築地青空三代目 本店,35.6649843,139.7705353,日式料理,東京,JP,http://maps.google.com/?cid=2998448531215099851,
Seafood Restaurant Seagen,35.6649205,139.7704994,海鮮料理,東京,JP,http://maps.google.com/?cid=1991547066170749955,
築地壽司清 築地本店,35.6648282,139.7704422,壽司,東京,JP,http://maps.google.com/?cid=13533179521417656094,
Tsukiji Kagura Sushi,35.6647094,139.7704808,壽司,東京,JP,http://maps.google.com/?cid=15688136524688533528,
壽司富,35.6642303,139.7709863,壽司,東京,JP,http://maps.google.com/?cid=12287139979527107570,
築地 壽司大本館,35.664581,139.7723,壽司,東京,JP,http://maps.google.com/?cid=12703375602748450933,
Katsuhei,35.6650282,139.7739974,日式料理,東京,JP,http://maps.google.com/?cid=1136110032240644835,
Tsukiji Hajime Sengyoten,35.6652277,139.7754627,日式料理,東京,JP,http://maps.google.com/?cid=4352309768545167672,
炸牛排 京都勝牛 友都八喜Akiba店,35.6987115,139.7746113,西式料理,東京,JP,http://maps.google.com/?cid=14309534363952987822,
とんかつ山家 御徒町店,35.7082932,139.7754421,豬排,東京,JP,http://maps.google.com/?cid=11052182566575589362,
一頭牛燒肉 房家,35.7088053,139.7760391,燒肉/燒烤,東京,JP,http://maps.google.com/?cid=15634140585030683104,
上野 藪蕎麥,35.7101954,139.7754618,蕎麥麵,東京,JP,http://maps.google.com/?cid=1033315330731136427,
日式甜品 みはし 本店,35.7103263,139.773975,甜點,東京,JP,http://maps.google.com/?cid=1748752640190293635,
炸牛 元村 上野店,35.7104455,139.7744533,日式料理,東京,JP,http://maps.google.com/?cid=6534178951041514028,
Tsukishimamonja Moheji Uenobunten,35.7101036,139.7746348,日式料理,東京,JP,http://maps.google.com/?cid=17715008893652835696,
肉の大山 上野店,35.7103925,139.7752423,日式料理,東京,JP,http://maps.google.com/?cid=15433152325773696353,
三浦三崎港 上野店,35.71091,139.7749875,日式料理,東京,JP,http://maps.google.com/?cid=12900281646997019947,
紅鶴,35.7119043,139.7918816,日式料理,東京,JP,http://maps.google.com/?cid=6236813020373834353,
泥鰍 飯田屋,35.7140346,139.7915797,日式料理,東京,JP,http://maps.google.com/?cid=14935657015425280822,
淺草今半 國際通本店,35.7139345,139.7922291,日式料理,東京,JP,http://maps.google.com/?cid=4622158629264349144,
Hontosaya,35.7143719,139.7920081,日式料理,東京,JP,http://maps.google.com/?cid=5237813721424163732,
LUXE BURGERS & Sunny's Table Asakusa,35.7117697,139.7946777,日式料理,東京,JP,http://maps.google.com/?cid=9352932899047270337,
Tonkatsu Yutaka,35.7117681,139.7940703,豬排,東京,JP,http://maps.google.com/?cid=13766855796925682427,
Washoku Gyuuna yadoki Asakusa,35.7122411,139.7936704,日式料理,東京,JP,http://maps.google.com/?cid=9183275161582306117,
豚骨 富士拉麵,35.7124291,139.7923756,拉麵,東京,JP,http://maps.google.com/?cid=12912796463774259417,
烤鰻 やっこ,35.7115264,139.7923968,鰻魚料理,東京,JP,http://maps.google.com/?cid=15354244787185090977,
Tonkatsu Oribe,35.7114476,139.7929419,豬排,東京,JP,http://maps.google.com/?cid=9318899785483822535,
連鎖平價天丼 天屋,35.7114847,139.7928011,日式料理,東京,JP,http://maps.google.com/?cid=3811576022984190020,
KOBE BEEF DAIA SUSHIYA DORI,35.7118228,139.7931397,壽司,東京,JP,http://maps.google.com/?cid=68147949167242338,
Edosada,35.7116409,139.7933424,日式料理,東京,JP,http://maps.google.com/?cid=6328897655605274692,
Seafood Monja Mosuke,35.7112687,139.7943885,海鮮料理,東京,JP,http://maps.google.com/?cid=18331863953990454302,
GYUKATSU Kyoto Katsugyu Asakusa Orange Street,35.7115624,139.7946334,日式料理,東京,JP,http://maps.google.com/?cid=5853454389390929126,
Ninja Yakiniku Wagyu Asakusa Halal Restaurant |忍者焼肉浅草支店,35.7116961,139.7946535,燒肉/燒烤,東京,JP,http://maps.google.com/?cid=730071603546219408,
Misojyu,35.7116123,139.7937274,日式料理,東京,JP,http://maps.google.com/?cid=14709696794573405707,
Monblanc,35.7114716,139.7934608,日式料理,東京,JP,http://maps.google.com/?cid=9159692825412977615,
洋食 ヨシカミ,35.712937,139.7937569,日式料理,東京,JP,http://maps.google.com/?cid=8503093811128313159,
Asakusa Monjayaki Monrō,35.7129748,139.7940607,日式料理,東京,JP,http://maps.google.com/?cid=10955846176832927390,
和菓子 楓 本店,35.7128852,139.7942591,日式料理,東京,JP,http://maps.google.com/?cid=2493940486326556058,
Asakusa Monja Mokichi,35.7152166,139.7939846,日式料理,東京,JP,http://maps.google.com/?cid=6563894391414269210,
北海道牛奶冰室 淺草咖啡廳,35.714649,139.7945632,咖啡廳,東京,JP,http://maps.google.com/?cid=235131317981335734,
淺草 花月堂 本店,35.7146332,139.7951685,日式料理,東京,JP,http://maps.google.com/?cid=4451824583051951723,
Mr. Danger,35.7162628,139.7958135,日式料理,東京,JP,http://maps.google.com/?cid=1290681238307670258,
Suzukien Asakusa matcha gelato,35.7163436,139.7969391,冰品,東京,JP,http://maps.google.com/?cid=1927186369537713749,
拉麵弁慶 本店,35.7151857,139.8007913,拉麵,東京,JP,http://maps.google.com/?cid=13726204848511598081,
Chinya,35.7150136,139.8013741,日式料理,東京,JP,http://maps.google.com/?cid=11896227763841481300,
八十八良葉舍 淺草,35.7145375,139.8014641,日式料理,東京,JP,http://maps.google.com/?cid=11813678027075621249,
Kaminari Issa,35.7141368,139.7985569,日式料理,東京,JP,http://maps.google.com/?cid=15135817584422196320,
Tonkatsu Toyama,35.7125072,139.7984392,豬排,東京,JP,http://maps.google.com/?cid=14585479970548691751,
Asakusa Yakiniku Tanki,35.712208,139.798065,燒肉/燒烤,東京,JP,http://maps.google.com/?cid=6961889510479732379,
Unatoto Asakusa,35.712015,139.797945,日式料理,東京,JP,http://maps.google.com/?cid=12446000319468350978,
渡邊拉麵 淺草店,35.7120269,139.7974693,拉麵,東京,JP,http://maps.google.com/?cid=16165123361584782654,
Nyorosuke Tatsumiya Asakusa,35.7120083,139.79719,日式料理,東京,JP,http://maps.google.com/?cid=1661225864636049537,
蕎麥麵 十和田 本店,35.7120635,139.7971844,蕎麥麵,東京,JP,http://maps.google.com/?cid=5556580114243617759,
黑毛和牛 Ichinoya 浅草店,35.7122837,139.7972069,日式料理,東京,JP,http://maps.google.com/?cid=15262492583969157707,
Tsukishima Monja Okoge Asakusa,35.7125187,139.7972586,日式料理,東京,JP,http://maps.google.com/?cid=2674225321120368800,
今半別館,35.7131382,139.7969276,日式料理,東京,JP,http://maps.google.com/?cid=11596091792119117227,
大正ロマン館,35.7128921,139.7967384,日式料理,東京,JP,http://maps.google.com/?cid=4715643615027808330,
淺草梅園,35.7123684,139.7962543,日式料理,東京,JP,http://maps.google.com/?cid=11034619643483869312,
Asadori,35.71221,139.7963285,日式料理,東京,JP,http://maps.google.com/?cid=5537105862396716883,
淺草炸肉餅,35.7129114,139.7960553,日式料理,東京,JP,http://maps.google.com/?cid=11520710359969543878,
淺草 壽司賢,35.7139423,139.7926478,壽司,東京,JP,http://maps.google.com/?cid=18420165238113211486,
立食壽司 日向丸,35.7115938,139.7960536,壽司,東京,JP,http://maps.google.com/?cid=6611446447508385988,
海幸壽司店,35.6789829,139.8275448,壽司,東京,JP,http://maps.google.com/?cid=9249130656633539135,
迴轉壽司 Toriton 東京晴空塔・晴空街道店,35.7100517,139.8129244,甜點,東京,JP,http://maps.google.com/?cid=5860161407130255729,
Qu'il fait bon,35.710134,139.8114516,日式料理,東京,JP,http://maps.google.com/?cid=5744773059387865723,
美川是山居 天婦羅,35.675456,139.7930708,天婦羅,東京,JP,http://maps.google.com/?cid=15035242195208815318,
Asakusa Amairo,35.7117086,139.7956502,日式料理,東京,JP,http://maps.google.com/?cid=11930695447868092908,
日本橋天丼 金子半之助,35.6853778,139.7752665,日式料理,東京,JP,http://maps.google.com/?cid=2076606597046497200,
池波正太郎 天婦羅 天藤,35.713,139.7942,天婦羅,東京,JP,http://maps.google.com/?cid=5947806842312342593,
天ぷら 中山,35.6840743,139.7826777,天婦羅,東京,JP,http://maps.google.com/?cid=18163348533606970012,
Takahashi,35.6996338,139.8136127,日式料理,東京,JP,http://maps.google.com/?cid=8977903704261922299,
野口鮮魚店,35.7064163,139.8056161,日式料理,東京,JP,http://maps.google.com/?cid=2640146096609332255,
鰻禪,35.7088356,139.805712,鰻魚料理,東京,JP,http://maps.google.com/?cid=603762350995477227,
Hitsumabushi Bincho Tokyo Solamachi,35.7102516,139.8123781,鰻魚料理,東京,JP,http://maps.google.com/?cid=3560592831051699338,
Parazzo San Gusto Italian Restaurant,35.7091231,139.8108974,西式料理,東京,JP,http://maps.google.com/?cid=6994581667165807309,
銀座 篝 本店,35.6712019,139.7613315,日式料理,東京,JP,http://maps.google.com/?cid=9392657951139765811,
Tonkatsu Mitsuya,35.7227845,139.7625873,豬排,東京,JP,http://maps.google.com/?cid=11527059580953061668,
Edomondo,35.7337264,139.7683329,日式料理,東京,JP,http://maps.google.com/?cid=6292940182195200627,
一頭牛燒肉 房家,35.7275473,139.7722199,燒肉/燒烤,東京,JP,http://maps.google.com/?cid=16810459987792913461,
燒肉 鶯谷園,35.7223556,139.7793444,燒肉/燒烤,東京,JP,http://maps.google.com/?cid=392636670008216114,
順園小館,25.012306,121.535557,台式料理,台北,TW,http://maps.google.com/?cid=11247103603898198318,
樂業麵線,25.0203095,121.5525343,台式小吃,台北,TW,http://maps.google.com/?cid=9700120781889267523,
昇冠雞排專賣店 崇德店,25.0241726,121.5552345,台式料理,台北,TW,http://maps.google.com/?cid=6682730703604135075,
文昌炸醬麵(無分店）,24.7579147,121.7514739,台式料理,宜蘭,TW,http://maps.google.com/?cid=10836397512327730708,
宜蘭廟口紅糟魷魚,24.7594778,121.7528743,台式料理,宜蘭,TW,http://maps.google.com/?cid=5456482460948867542,
原來豆花｜宜蘭店,24.7604572,121.752115,台式料理,宜蘭,TW,http://maps.google.com/?cid=15803183869361920860,
Chou Chou 迷你可麗露專賣店,24.7661827,121.7680122,台式料理,宜蘭,TW,http://maps.google.com/?cid=7289158765490970223,
龍潭春捲伯（3/7～3/11休息）,24.7780418,121.743758,台式料理,宜蘭,TW,http://maps.google.com/?cid=11428840002449225356,
義豐蔥油派,24.677704,121.7669123,台式料理,宜蘭,TW,http://maps.google.com/?cid=14946209618221788771,
阿肥蔥油餅,24.744294,121.7248095,購物,宜蘭,TW,http://maps.google.com/?cid=9597329290383522881,
宜蘭北門傳承蒜味肉羹在地小吃,24.7605571,121.7520978,台式料理,宜蘭,TW,http://maps.google.com/?cid=2091008143949317463,
阿林鵝肉,22.9767448,120.2227728,台式料理,台南,TW,http://maps.google.com/?cid=13420373475650363716,
田樂咖哩,25.0292663,121.5562349,咖哩/印度,台北,TW,http://maps.google.com/?cid=10939389524448742173,
阿來甜不辣,25.0455556,121.5844444,台式料理,台北,TW,http://maps.google.com/?cid=17772417167626532441,
麵線傳奇,25.0616539,121.5211472,台式小吃,台北,TW,http://maps.google.com/?cid=7017299214384653405,
山鯨燒肉 漢口店,24.1668144,120.6753156,燒肉/燒烤,台中,TW,http://maps.google.com/?cid=1165511701890094351,
同安街麵線羹,25.0229909,121.5209924,台式小吃,台北,TW,http://maps.google.com/?cid=17682844454202599879,
秋菓草莓大福專賣,24.1697662,120.6769097,台式料理,台中,TW,http://maps.google.com/?cid=15831051681360849915,
麵屋德家,25.0609926,121.5204273,台式料理,台北,TW,http://maps.google.com/?cid=6222896911155694856,
KATSU鑫 熟成豬排蓋飯｜安和店,25.0385766,121.5520412,豬排,台北,TW,http://maps.google.com/?cid=15659568897590022260,
找晨。Find Morning手作輕食料理(北屯店),24.1672523,120.6949495,台式料理,台中,TW,http://maps.google.com/?cid=10154912448252733652,
MR.GAPAO嘎拋先生-打拋專賣店,24.1420579,120.6801008,台式料理,台中,TW,http://maps.google.com/?cid=4057653653923567311,
脂 板前 炭火燒肉,24.135902,120.662257,燒肉/燒烤,台中,TW,http://maps.google.com/?cid=16535087672244797162,
老宋記真善美牛肉麵,25.0199052,121.5538534,台式料理,台北,TW,http://maps.google.com/?cid=4558610094506869503,
文｜火｜處｜方 料理所,25.0327138,121.5511257,台式料理,台北,TW,http://maps.google.com/?cid=4105279913960851001,
宜嘉二手OA辦公傢俱,25.0232714,121.5166654,台式料理,台北,TW,http://maps.google.com/?cid=10573178338706019252,
雞白湯專門 拉麵一貴 らーめん一貴,25.069243,121.3678956,景點,桃園,TW,http://maps.google.com/?cid=18392274616949386946,
龍記搶鍋麵,25.0420484,121.5109227,台式料理,台北,TW,http://maps.google.com/?cid=11971878931933828821,
無敵水餃,25.0391745,121.5762309,台式料理,台北,TW,http://maps.google.com/?cid=7287649653220780674,
阿琴蚵嗲,24.9587251,121.2719728,台式料理,桃園,TW,http://maps.google.com/?cid=4036048290476998581,
監獄蛋餅,24.9749897,121.2721003,台式料理,桃園,TW,http://maps.google.com/?cid=3418459605033047258,
詹式炸鷄,23.7580546,120.6868483,台式料理,嘉義,TW,http://maps.google.com/?cid=9443947189975201236,
竹山煎餃,23.75646,120.6828461,台式料理,嘉義,TW,http://maps.google.com/?cid=10797409320537941754,
文芳小吃部,23.7547833,120.6825379,台式料理,嘉義,TW,http://maps.google.com/?cid=2943562258422622235,
鄭記韭菜盒（竹山美食 票選第二名）韭菜盒-蔥油餅-牛肉餡餅-豬肉餡餅-蛋餅-小米粥,23.7566593,120.6844928,台式小吃,嘉義,TW,http://maps.google.com/?cid=12831118481323107369,
休士頓雞排(Chicken Cutlet),24.2542032,120.5326457,台式料理,台中,TW,http://maps.google.com/?cid=7921276293522455555,
鴨寶食堂,24.2488191,120.5386885,台式料理,台中,TW,http://maps.google.com/?cid=3239236872507533534,
林異香齋餅店-台中伴手禮、台中名產、梧棲名產、梧棲伴手禮,24.257501,120.5299148,台式料理,台中,TW,http://maps.google.com/?cid=6798821255709577840,
正典牛乳大王 餅乾三明治冰磚,23.9449293,120.6972548,冰品,台中,TW,http://maps.google.com/?cid=10215646528156352226,
［中興新村］e92coffee 依舊愛咖啡,23.9422742,120.7001632,咖啡廳,台中,TW,http://maps.google.com/?cid=7739023693362172511,
丘山茶 Hilltea,23.941948,120.7001768,台式料理,台中,TW,http://maps.google.com/?cid=17095837116151290524,
紅燈籠三輪車仙草,25.0515401,121.5662158,台式料理,台北,TW,http://maps.google.com/?cid=18407963972102593883,
Fourninetine Bakery 大安店,25.0363402,121.547275,麵包坊,台北,TW,http://maps.google.com/?cid=9568580183991768878,
巷子口食堂,25.0317811,121.5527197,台式料理,台北,TW,http://maps.google.com/?cid=10434946754628441403,
龍人拉麵,25.0443207,121.545918,拉麵,台北,TW,http://maps.google.com/?cid=8512907777922001744,
台電勵進餐廳,25.0278637,121.5248983,台式料理,台北,TW,http://maps.google.com/?cid=6073768634444348323,
味有招,25.0302278,121.5074612,台式料理,台北,TW,http://maps.google.com/?cid=15416401248519234217,
小南門福州傻瓜乾麵 延平總店,25.0354302,121.5078009,台式料理,台北,TW,http://maps.google.com/?cid=627685720361379321,
流火茶坊 高雄手搖飲,22.632119,120.317574,手搖/茶飲,高雄,TW,http://maps.google.com/?cid=16137361712487002605,
小雅茶飲-芋頭西米露,22.6438377,120.308037,台式料理,高雄,TW,http://maps.google.com/?cid=3925251731365127126,
蔡氏排骨炒飯,22.6160385,120.2967999,台式料理,高雄,TW,http://maps.google.com/?cid=14988676249280447782,
苓雅油煎肉圓,22.6219916,120.3161395,台式小吃,高雄,TW,http://maps.google.com/?cid=1850557082028298572,
香港茶水攤 延吉店,25.0419098,121.5547943,台式料理,台北,TW,http://maps.google.com/?cid=10799084686808066597,
漣戶,22.9960208,120.232945,台式料理,台南,TW,http://maps.google.com/?cid=11939953182613140483,
炒鱔魚專家,22.9835442,120.2259154,台式料理,台南,TW,http://maps.google.com/?cid=13594278920104508005,
阿杰溫體牛肉湯,22.9992848,120.2008623,台式料理,台南,TW,http://maps.google.com/?cid=3645096630466435902,
山貓茶事 竹山店,23.764898,120.7042851,台式料理,嘉義,TW,http://maps.google.com/?cid=11346660881425786407,
丰山 可麗露專賣店 第六市場店,24.1557383,120.663261,台式料理,台中,TW,http://maps.google.com/?cid=9859757178437694760,
德華口腔顎面外科牙醫診所【台大博士微創植牙與智齒專家權威推薦】,25.0420794,121.5130546,台式料理,台北,TW,http://maps.google.com/?cid=1457023940354565690,
吳記北平餡餅專賣店,25.0525599,121.4668932,台式料理,台北,TW,http://maps.google.com/?cid=16686930890749352182,
福緣火鍋,25.2250394,121.6302262,火鍋,基隆,TW,http://maps.google.com/?cid=7442244836221017935,
芮㍿🔥 京都行きの電車には11席あり、そのうち1席は猫用です創立5周年を迎えることができ嬉しく思っております。,25.043709,121.504452,台式料理,台北,TW,http://maps.google.com/?cid=2668052849517529994,
荷麵亭 HASUMENTEI 北投店,25.133434,121.49799,台式料理,台北,TW,http://maps.google.com/?cid=8760994926048307481,
徐記紅糖餅,24.9605296,121.2220517,台式料理,桃園,TW,http://maps.google.com/?cid=16850679085116520889,
Seed Bakery 麵包籽 文興店,24.8156957,121.0185703,麵包坊,新竹,TW,http://maps.google.com/?cid=14079559252961961483,
橫濱家系拉麵 特濃屋,25.0573244,121.5250309,拉麵,台北,TW,http://maps.google.com/?cid=12541084170680776907,
壹零手工蛋餅,24.9979031,121.5185771,台式料理,台北,TW,http://maps.google.com/?cid=4113691764117763110,
九品川,25.0203513,121.5337443,台式料理,台北,TW,http://maps.google.com/?cid=5130961434231419233,
義興公園臭豆腐,24.949549,121.2089352,景點,桃園,TW,http://maps.google.com/?cid=10454449066017045526,
onon_cake 二溫菓子 可麗露專賣店,24.9573643,121.2385392,甜點,桃園,TW,http://maps.google.com/?cid=11151544923448383197,
ATTENTION,24.8028711,120.968586,台式料理,新竹,TW,http://maps.google.com/?cid=3829884046515707196,
黑麻糬😋（每日限量..售完打烊）,25.0496062,121.5421273,台式料理,台北,TW,http://maps.google.com/?cid=15195229107553858495,
強蛋餅,23.9708548,121.6106558,台式料理,花蓮,TW,http://maps.google.com/?cid=17174939600740041239,
蔡記豆花,23.977527,121.603431,台式料理,花蓮,TW,http://maps.google.com/?cid=5522321972281742977,
邊境法式點心坊,23.985538,121.6046196,港式/粵菜,花蓮,TW,http://maps.google.com/?cid=11418689811474605274,
找到了可頌小売所,23.9810684,121.6154356,台式料理,花蓮,TW,http://maps.google.com/?cid=5105977884496644494,
Top烘焙房自強店,23.9918113,121.5972265,台式料理,花蓮,TW,http://maps.google.com/?cid=8256858110460838113,
義珍香烘焙坊(蘇澳總店),24.5961169,121.8502226,台式料理,宜蘭,TW,http://maps.google.com/?cid=6987152990070981447,
四維先生鳳梨冰🔺內部整修預計2026夏天營業🔺,23.9751405,121.6148304,冰品,花蓮,TW,http://maps.google.com/?cid=15656764687365714668,
東大門夜市茶坑小巷各省一條街G49號,23.9716101,121.6108743,景點,花蓮,TW,http://maps.google.com/?cid=5978006060155086327,
瓦克茶飲 Walker Tea Shop |花蓮飲料推薦|花蓮必喝|特色飲料|在地品牌,23.9803976,121.6064312,台式料理,花蓮,TW,http://maps.google.com/?cid=14909463052600769628,
期香茶棧 金三角店,23.9787537,121.6058666,台式料理,花蓮,TW,http://maps.google.com/?cid=14592925265149666863,
一青苑手工茶殿,23.9760392,121.6085306,台式料理,花蓮,TW,http://maps.google.com/?cid=3441907174099256115,
林記明禮路葱油餅,23.9821166,121.6087342,台式料理,花蓮,TW,http://maps.google.com/?cid=2322427910628055288,
南方澳無名蝦餅蚵嗲蘿蔔糕,24.5833473,121.8646666,台式料理,宜蘭,TW,http://maps.google.com/?cid=10538640797300279540,
米琪淋乳凍蛋糕,25.1764407,121.6880681,甜點,基隆,TW,http://maps.google.com/?cid=5480482841736612931,
豚小屋拉麵,25.0825776,121.5667018,拉麵,台北,TW,http://maps.google.com/?cid=10311727746139042136,
國聲沾醬雞排,23.9812603,121.6053606,台式料理,花蓮,TW,http://maps.google.com/?cid=10036125918855414788,
巧福便當（不外送.10:00～13:00不接電話）,25.0444813,121.5123479,台式料理,台北,TW,http://maps.google.com/?cid=12345510824883638513,
瀧厚炙燒熟成牛排 台北.北車店,25.0477467,121.5169983,西式料理,台北,TW,http://maps.google.com/?cid=14639805110710727222,
嘉義諸羅山涼麵,23.4735778,120.4578121,台式料理,嘉義,TW,http://maps.google.com/?cid=166098632772223803,
嘉義車頭火雞肉飯（永香珍食堂）,23.4783679,120.4417688,台式料理,嘉義,TW,http://maps.google.com/?cid=2564100312866548063,
北港江記龍門生炒鴨肉焿,25.0730583,121.4981477,台式料理,台北,TW,http://maps.google.com/?cid=3384111146039834766,
天鷄麵屋坊,25.052361,121.5196587,台式料理,台北,TW,http://maps.google.com/?cid=10352788028703059934,
Sumiyaki Yakitori Sasanoya,35.7209281,139.7798305,燒肉/燒烤,東京,JP,http://maps.google.com/?cid=6293545162101516474,
食譜自助百匯餐廳,24.807079,120.975231,台式料理,新竹,TW,http://maps.google.com/?cid=8156670472191249215,
東輝韓食館,25.0596308,121.5345902,台式料理,台北,TW,http://maps.google.com/?cid=5902314775038710794,
阿水師米糕/碗粿,23.4859764,120.4395205,台式小吃,嘉義,TW,http://maps.google.com/?cid=3068378222734970736,
頭頓煎蝦餅,25.0037809,121.3078901,台式料理,桃園,TW,http://maps.google.com/?cid=7785884594298398212,
正港泰享吃泰式料理,25.0045099,121.3071113,泰式料理,桃園,TW,http://maps.google.com/?cid=13266506375500580369,
蚵四海小吃,25.0662147,121.5006487,台式料理,台北,TW,http://maps.google.com/?cid=6957061371576797063,
社頭味香鍋貼水餃專賣店,23.8998517,120.5874251,台式料理,台中,TW,http://maps.google.com/?cid=981639478353019025,
社頭蒜頭麵,23.9042,120.5844713,台式料理,台中,TW,http://maps.google.com/?cid=4393802710239350223,
libreadry 巢屋,25.0388239,121.5520863,麵包坊,台北,TW,http://maps.google.com/?cid=4901833457977212161,
巢飯麵食館（市府店）,25.0420463,121.5643503,台式料理,台北,TW,http://maps.google.com/?cid=10126667249373002455,
麵屋道樂,25.0802958,121.4817466,台式料理,台北,TW,http://maps.google.com/?cid=6145004653603153307,
新港廟口鴨肉羹,25.0837022,121.4589557,台式料理,台北,TW,http://maps.google.com/?cid=14422281865788501145,
老吳碳烤燒餅,24.7487134,121.7512883,台式料理,宜蘭,TW,http://maps.google.com/?cid=10561239492102372567,
六一一豆漿店,24.9579565,121.2170369,台式料理,桃園,TW,http://maps.google.com/?cid=3829762726216027017,
紅磚粉圓專賣店,23.4695637,120.4596599,台式料理,嘉義,TW,http://maps.google.com/?cid=15869155288449267518,
一樂漁場生魚片丼飯專賣店,25.0003915,121.5190308,台式料理,台北,TW,http://maps.google.com/?cid=941002456102297903,
Boulangerie Ours,25.0256244,121.5479493,麵包坊,台北,TW,http://maps.google.com/?cid=5025928800768925454,
探扒霸-平價午晚餐 台中美食/南屯美食推薦/南屯小吃/南屯熱炒/南屯炒飯/南屯必吃,24.1268307,120.6296972,台式料理,台中,TW,http://maps.google.com/?cid=8958649616567923425,
羊叔叔早餐店,25.0486005,121.4533554,台式料理,台北,TW,http://maps.google.com/?cid=15242094453779649826,
公園粉條甜品店(川日),25.0571503,121.4352184,景點,台北,TW,http://maps.google.com/?cid=7793035176777000845,
小高拉麵 板橋民權路,25.0158881,121.4574179,拉麵,台北,TW,http://maps.google.com/?cid=10607419465055667395,
阿蘭姊小吃店,24.5512266,120.8174,台式料理,新竹,TW,http://maps.google.com/?cid=14083294991602921503,
日向洋食（不提供當日定位，可現場候位,25.0906096,121.5243643,台式料理,台北,TW,http://maps.google.com/?cid=941378302997757543,
及品鍋貼水餃專賣店,25.0968077,121.5214484,台式料理,台北,TW,http://maps.google.com/?cid=4939516745448700874,
哈哈羅55泰式船麵(士林店),25.0888355,121.521739,泰式料理,台北,TW,http://maps.google.com/?cid=2069232347826143265,
山田麻糬製造所,24.8020976,120.9667146,台式料理,新竹,TW,http://maps.google.com/?cid=14259862808395085598,
小陳故事手工臭豆腐專賣店,25.0714288,121.4324682,台式小吃,台北,TW,http://maps.google.com/?cid=2412137965604910542,
三槐堂,25.0305747,121.5193423,台式料理,台北,TW,http://maps.google.com/?cid=10535531954285996704,
新東羊 羊肉料理專賣店,25.0661623,121.5404333,羊肉爐,台北,TW,http://maps.google.com/?cid=16702092433458892171,
福大蒸餃館,25.0515133,121.5216363,台式料理,台北,TW,http://maps.google.com/?cid=10460725085699448610,
赤丸,25.0556871,121.5196987,台式料理,台北,TW,http://maps.google.com/?cid=4602006365736431591,
三角店客家菜包,24.9551831,121.2190318,台式料理,桃園,TW,http://maps.google.com/?cid=11436020178232518041,
大湳小林雞排肉羹 中壢後站店,24.9512979,121.2259114,台式料理,桃園,TW,http://maps.google.com/?cid=17497520750419334150,
石家正阿美綠豆湯 西門店,22.998748,120.200475,台式料理,台南,TW,http://maps.google.com/?cid=12803034507601461677,
台灣陳沙茶火鍋,24.1385896,120.6831206,火鍋,台中,TW,http://maps.google.com/?cid=7031644330897475730,
鈴蘭碗粿,23.404782,120.5120625,台式小吃,嘉義,TW,http://maps.google.com/?cid=5620928348951141705,
啖餅坊手工蛋餅專賣店,24.9861678,121.4503611,台式料理,台北,TW,http://maps.google.com/?cid=15152486228066928787,
哞哞屋 （休假請看臉書粉絲團，2:30開始營業～賣完為止）,24.1810516,120.5932733,台式料理,台中,TW,http://maps.google.com/?cid=7056583112651783910,
吳氏湯包,25.0516528,121.3641912,上海料理,桃園,TW,http://maps.google.com/?cid=10330894873525239642,
芋叔叔芋頭酥,24.9895092,121.3118249,台式料理,桃園,TW,http://maps.google.com/?cid=9453289783046837661,
無名車輪餅,25.0275955,121.5064982,台式料理,台北,TW,http://maps.google.com/?cid=16531218716286245024,
鴨大哥港式脆皮烤鴨「沙鹿屏西店」,24.2080813,120.5681089,台式料理,台中,TW,http://maps.google.com/?cid=2974229696107948504,
鴨大哥港式脆皮櫻桃烤鴨（水湳經貿店）暫改土番鴨（2.6公斤）替代/由於櫻桃鴨全台大缺貨,24.1825762,120.6647622,台式料理,台中,TW,http://maps.google.com/?cid=1684073564581575625,
一口香餡餅,24.5687902,120.823717,台式料理,新竹,TW,http://maps.google.com/?cid=6059182402767279767,
如意麵店,24.5718278,120.8313467,台式料理,新竹,TW,http://maps.google.com/?cid=15492064911823163276,
大黃記胡椒餅,25.0888097,121.5083168,台式料理,台北,TW,http://maps.google.com/?cid=12809767352832382670,
九指快手包子店,24.9529235,121.35142,台式料理,桃園,TW,http://maps.google.com/?cid=5478253628587487873,
田中臭豆腐,25.066727,121.4824216,台式小吃,台北,TW,http://maps.google.com/?cid=18432746696817785725,
Mon dessert | 可麗露｜達克瓦茲外帶專門店-雙城店(無內用,25.0679745,121.5249826,甜點,台北,TW,http://maps.google.com/?cid=13640822815162901572,
姐 弟泰國小吃店,25.0492455,121.4664964,泰式料理,台北,TW,http://maps.google.com/?cid=10187217273987408315,
賺錢湯,25.0018073,121.6153593,台式料理,台北,TW,http://maps.google.com/?cid=8182188898216005606,
味の豆腐,25.0010672,121.6128492,台式料理,台北,TW,http://maps.google.com/?cid=12458897110965531744,
啟英蛋餅,24.9727727,121.2346072,台式料理,桃園,TW,http://maps.google.com/?cid=3584046471105362655,
正東山肉圓（不定期公休，請看FB粉專）,24.1703928,120.6912393,台式小吃,台中,TW,http://maps.google.com/?cid=2488756504571711949,
精誠夜市,24.0726548,120.52671,景點,台中,TW,http://maps.google.com/?cid=17087762823278290887,
娜辣子 正宗重慶酸辣粉,25.0272528,121.4585509,台式料理,台北,TW,http://maps.google.com/?cid=10257816613605317428,
港豐撈麵飯堂,25.0230519,121.4611199,台式料理,台北,TW,http://maps.google.com/?cid=3745815444454123590,
臭味香麻辣臭豆腐,24.9924563,121.4294864,台式小吃,桃園,TW,http://maps.google.com/?cid=11673907827051118962,
無名肉羹麵,24.9885731,121.4205779,台式料理,桃園,TW,http://maps.google.com/?cid=18377456444588982921,
日馨麵店,24.6925648,120.9076104,台式料理,新竹,TW,http://maps.google.com/?cid=2047186637008752186,
三重後竹圍無名豆花,25.0714652,121.4844389,台式料理,台北,TW,http://maps.google.com/?cid=6990521764941210436,
Kanokwan 老麵攤,25.0537296,121.5311627,台式料理,台北,TW,http://maps.google.com/?cid=1112302249367170284,
陳媽媽紅豆餅,23.4892861,120.4434884,台式料理,嘉義,TW,http://maps.google.com/?cid=4947500916170247639,
老周冷熱飲,22.6360678,120.2929199,台式料理,高雄,TW,http://maps.google.com/?cid=327649046617968361,
城中美食,25.044229,121.512239,台式料理,台北,TW,http://maps.google.com/?cid=11886953367189314278,
西門站茯苓糕,25.0417705,121.5089067,台式料理,台北,TW,http://maps.google.com/?cid=12242862248358609215,
紅昌吉豬血湯,25.0657465,121.5167174,台式料理,台北,TW,http://maps.google.com/?cid=13010312178852786976,
紅茶屋,25.0744639,121.5155667,台式料理,台北,TW,http://maps.google.com/?cid=14689065114371031502,
阿伯蛋包麵,25.0307553,121.4930826,台式料理,台北,TW,http://maps.google.com/?cid=2553309570333776872,
民生路無名豆花,24.1442802,120.6697446,台式料理,台中,TW,http://maps.google.com/?cid=12491713231170259656,
銀魚泰國料理-松江店,25.0533962,121.5320698,泰式料理,台北,TW,http://maps.google.com/?cid=13292991760556718764,
龍哥雞排金山店、3/23、3/24店休,24.1417958,120.6715275,台式料理,台中,TW,http://maps.google.com/?cid=11968271727482779023,
品味香麵攤,24.1383037,120.6451247,台式料理,台中,TW,http://maps.google.com/?cid=14311490647153307463,
不一樣饅頭,24.1402187,120.6738564,台式料理,台中,TW,http://maps.google.com/?cid=13082977762554900739,
赤肉羹,25.0154296,121.4278635,台式料理,桃園,TW,http://maps.google.com/?cid=16158694520720321483,
龍潭許-無敵仙草冰,24.865158,121.213388,冰品,桃園,TW,http://maps.google.com/?cid=8834156968845678995,
仙草小舖（備料售完，將提早打烊！）,24.7905497,121.1766406,台式料理,新竹,TW,http://maps.google.com/?cid=9574839540753666147,
青海牛肉麵,24.163503,120.6570397,台式料理,台中,TW,http://maps.google.com/?cid=5014561768247015045,
和平嘉義火雞肉飯,23.4749267,120.4576316,台式料理,嘉義,TW,http://maps.google.com/?cid=14904929470084183081,
邱家鴨肉麵,24.805072,120.9679186,台式料理,新竹,TW,http://maps.google.com/?cid=8748250014163368637,
新港鴨肉羹,23.5549971,120.3474542,台式料理,嘉義,TW,http://maps.google.com/?cid=10605298486864939633,
德恩國術館,23.9724948,120.9737594,台式料理,台中,TW,http://maps.google.com/?cid=12567051070312602017,
燒瓶子。大肆の鍋 台中北屯店 | 最後點餐時間00:30,24.1758598,120.722874,台式料理,台中,TW,http://maps.google.com/?cid=7261047696177784977,
松包子（Os桑的包子）台中崇德店,24.1769605,120.6860752,台式料理,台中,TW,http://maps.google.com/?cid=8766948804667106200,
頂記 東坡蛋黃鮮肉包,24.1763013,120.6965037,台式料理,台中,TW,http://maps.google.com/?cid=11284521002684395676,
初包子包子饅頭,24.1663315,120.6943809,台式料理,台中,TW,http://maps.google.com/?cid=13257303105545809802,
永留香臭豆腐,24.1823416,120.6992139,台式小吃,台中,TW,http://maps.google.com/?cid=6112604797352820891,
豐鄉味小吃店,24.182861,120.698084,台式料理,台中,TW,http://maps.google.com/?cid=10910109157816424520,
冬山金珠蔥油餅,24.6335264,121.7912398,台式料理,宜蘭,TW,http://maps.google.com/?cid=5237487320871090768,
欣欣食堂(不定休),24.6667337,121.654545,台式料理,宜蘭,TW,http://maps.google.com/?cid=1198381953187170,
烏布雨林峇里島主題餐廳,23.8966204,120.9669209,台式料理,台中,TW,http://maps.google.com/?cid=2096900107842836739,
天下極品 炸杏鮑菇,23.9952166,121.0727251,台式料理,台中,TW,http://maps.google.com/?cid=16914520427565581001,
麵屋壹の穴 ICHI,25.0418912,121.5552509,台式料理,台北,TW,http://maps.google.com/?cid=2043258262762987024,
西市汕頭館總店,24.8042221,120.965153,台式料理,新竹,TW,http://maps.google.com/?cid=12143370679533604227,
黃家園蒸餃館,24.1498422,120.6666814,台式料理,台中,TW,http://maps.google.com/?cid=15891231739096324576,
東北之家酸菜白肉鍋 冠軍酸菜,25.0547153,121.3639671,東北/川湘菜,桃園,TW,http://maps.google.com/?cid=5286830873788205001,
老皮牛肉麵華亞店,25.050443,121.3703653,台式料理,桃園,TW,http://maps.google.com/?cid=885397812922463153,
228臭豆腐,25.0713107,121.486109,台式小吃,台北,TW,http://maps.google.com/?cid=13707535214726573177,
郁日式炸豬排（板橋華興店）,25.0051867,121.4571204,豬排,台北,TW,http://maps.google.com/?cid=15788182142942502695,
泰Chill-平價泰式料理,24.9359053,121.2571405,泰式料理,桃園,TW,http://maps.google.com/?cid=1943165938451938012,
享樂麻辣燙(公休日請看IG),25.0565515,121.4952478,台式料理,台北,TW,http://maps.google.com/?cid=9991289400494042476,
山東老牌水餃牛肉麵,24.1727782,120.6622007,台式料理,台中,TW,http://maps.google.com/?cid=3946539496526316850,
台南虱目魚粥,25.0540482,121.5104349,台式小吃,台北,TW,http://maps.google.com/?cid=8977327580046704774,
泰味館泰式料理吃到飽(愛買桃園店),24.9857719,121.2842616,泰式料理,桃園,TW,http://maps.google.com/?cid=14033443672903757816,
賣麵炎仔,25.0610993,121.5097861,台式料理,台北,TW,http://maps.google.com/?cid=4857750640565943451,
原太原火車站臭豆腐,24.1630855,120.6992739,交通節點,台中,TW,http://maps.google.com/?cid=15020687732074904287,
草屯無名阿美姨蛋餅,23.9781119,120.682748,台式料理,台中,TW,http://maps.google.com/?cid=441220288456269032,
義村羊肉爐,25.0246703,121.5002174,羊肉爐,台北,TW,http://maps.google.com/?cid=2531298878824731700,
自強路陽春麵,25.0804309,121.4924692,台式料理,台北,TW,http://maps.google.com/?cid=15158173969919643583,
南田爌肉飯,23.4696793,120.456067,台式料理,嘉義,TW,http://maps.google.com/?cid=8602446546762951283,
通通泰式風味小吃,25.0907864,121.7013428,泰式料理,基隆,TW,http://maps.google.com/?cid=3564906521947849894,
曾豆腐（營業時間：臉書，IG）,25.1338584,121.7349308,台式料理,基隆,TW,http://maps.google.com/?cid=16656483116848345326,
峰御尚涮涮鍋物 龍濱店,25.0700912,121.5025928,火鍋,台北,TW,http://maps.google.com/?cid=16375777759382693077,
好豆味冰沙豆花,24.803296,120.9700031,冰品,新竹,TW,http://maps.google.com/?cid=7492295268154360523,
梁二哥美食-鱔魚.花枝.鍋燒,23.1544773,120.1783857,台式料理,台南,TW,http://maps.google.com/?cid=9244783515502179515,
真好味米糕枝,23.1566514,120.1773162,台式小吃,台南,TW,http://maps.google.com/?cid=411146639019246284,
陸柒零年代飲品創始店 - 彰化鹿港總行,24.0589996,120.4313273,台式料理,台中,TW,http://maps.google.com/?cid=14584648988501213600,
鹿港傳統粉粿冰（源記）,24.0539793,120.4340671,冰品,台中,TW,http://maps.google.com/?cid=2047291114209095038,
碗粿世家,24.0539499,120.4321628,景點,台中,TW,http://maps.google.com/?cid=9247613391515627741,
蚯蚓龍山麵線糊,24.053817,120.434175,台式小吃,台中,TW,http://maps.google.com/?cid=16172186923126864000,
王罔麵線糊,24.0537604,120.4320815,台式小吃,台中,TW,http://maps.google.com/?cid=6210968706935137586,
台南市牛家莊牛肉湯,22.9895906,120.1944004,台式料理,台南,TW,http://maps.google.com/?cid=11787861772799542663,
清溪小吃部,22.6376273,120.2942122,台式料理,高雄,TW,http://maps.google.com/?cid=10469998020272889471,
板橋環南米苔目,25.0186577,121.4613009,台式料理,台北,TW,http://maps.google.com/?cid=12289495789728846196,
文化早點,24.9786701,121.2510325,台式料理,桃園,TW,http://maps.google.com/?cid=18323935915256316968,
板橋高記生炒魷魚,25.0103405,121.4574039,台式料理,台北,TW,http://maps.google.com/?cid=3844199009316662173,
三鮮湯包,24.1590687,120.6725221,上海料理,台中,TW,http://maps.google.com/?cid=16413674865136572878,
汕頭泉成沙茶火鍋(高雄美麗島中山總店),22.6319059,120.3012799,火鍋,高雄,TW,http://maps.google.com/?cid=3441875331046047541,
牛老大涮牛肉-高雄總店/高雄必吃美食/火鍋/必比登推介,22.622246,120.296626,火鍋,高雄,TW,http://maps.google.com/?cid=11609015391117380462,
三大牛肉火鍋（創始店）,23.0033933,120.2599434,火鍋,台南,TW,http://maps.google.com/?cid=3345294180858487836,
黑公雞風味餐廳,24.051445,120.5682755,台式料理,台中,TW,http://maps.google.com/?cid=13142172813004863606,
光華林老牌豆花,22.6173766,120.3182859,台式料理,高雄,TW,http://maps.google.com/?cid=7825240955019200194,
秀水湯包,24.0501767,120.5112816,上海料理,台中,TW,http://maps.google.com/?cid=16278991333272402937,
一品豆漿,23.968248,120.9590323,台式料理,台中,TW,http://maps.google.com/?cid=12842381952806033851,
古早味阿嬤手工肉圓,24.1687625,120.6766686,台式小吃,台中,TW,http://maps.google.com/?cid=6014359292604592247,
五間厝菜頭粿,23.7087344,120.4364448,台式料理,嘉義,TW,http://maps.google.com/?cid=6780285017577432767,
阿世肉羹,23.709452,120.435589,台式料理,嘉義,TW,http://maps.google.com/?cid=7434289585890576076,
三元號魯肉飯,25.0545187,121.5144606,台式小吃,台北,TW,http://maps.google.com/?cid=7584854874870469657,
蕭家下港脆皮臭豆腐（每週一店休）,25.0015318,121.5006157,台式小吃,台北,TW,http://maps.google.com/?cid=16926790114541437249,
嘉家樂肉丸(大甲),24.3465526,120.6216548,台式料理,台中,TW,http://maps.google.com/?cid=9005999116629643615,
大甲康家阿媽ㄟ粉腸,24.3458815,120.6226021,台式料理,台中,TW,http://maps.google.com/?cid=12843192975562830265,
吳記肉圓,23.7102107,120.5414201,台式小吃,嘉義,TW,http://maps.google.com/?cid=14964259138988069368,
【蛋餅王-古早粉漿大蛋餅］炒麵疙瘩.炒飯.閩南炒粉條.什錦麵,23.7075033,120.5438004,台式料理,嘉義,TW,http://maps.google.com/?cid=14867740863260502983,
虎尾美貞肉羹麵,23.7059017,120.4350364,台式料理,嘉義,TW,http://maps.google.com/?cid=16855721194691270303,
金捷發煎盤粿（金捷發五金行）,23.5659257,120.3043817,台式料理,嘉義,TW,http://maps.google.com/?cid=17450921132741813395,
林上發綠豆沙,23.5692975,120.3029999,台式料理,嘉義,TW,http://maps.google.com/?cid=1096420311574088211,
鄧肉圓斗六總店,23.7095981,120.5413255,台式小吃,嘉義,TW,http://maps.google.com/?cid=7269337481230056469,
老街碗粿,23.7082001,120.5414796,台式小吃,嘉義,TW,http://maps.google.com/?cid=9553367851541665175,
魷魚興魷魚嘴羮,23.7089364,120.5444045,台式料理,嘉義,TW,http://maps.google.com/?cid=9094825201086149738,
長興圓仔冰,23.7085292,120.5451492,冰品,嘉義,TW,http://maps.google.com/?cid=8180479349090730869,
阿國獅魷魚羹,23.709481,120.544797,台式料理,嘉義,TW,http://maps.google.com/?cid=7156852089068261498,
板橋水粄,25.0174765,121.4652821,台式料理,台北,TW,http://maps.google.com/?cid=10012928986297550215,
鐵朋滷味,24.088013,120.7046319,台式料理,台中,TW,http://maps.google.com/?cid=9660795905754184902,
三兩肉爌肉飯,24.0964461,120.6988633,台式料理,台中,TW,http://maps.google.com/?cid=13384982249986267919,
富樂里奇義大利麵餐廳,25.0436421,121.4536659,台式料理,台北,TW,http://maps.google.com/?cid=14858552092793267109,
老酒霸居酒屋 新莊店,25.0342791,121.4495544,泰式料理,台北,TW,http://maps.google.com/?cid=18079968715289466532,
老巴剎,22.6650127,120.3046734,台式料理,高雄,TW,http://maps.google.com/?cid=4982916011942181794,
海慶澎湖海鮮,22.614691,120.3183187,海鮮料理,高雄,TW,http://maps.google.com/?cid=179775746072915589,
大入串燒,22.6302454,120.3073285,燒肉/燒烤,高雄,TW,http://maps.google.com/?cid=3518949736830008886,
九記食糖水,22.6259675,120.316198,台式料理,高雄,TW,http://maps.google.com/?cid=16573222431189393279,
厚得福湯包麵食專賣店,22.6171278,120.2967268,上海料理,高雄,TW,http://maps.google.com/?cid=13424376624164736773,
湖東牛肉館,22.877725,120.251756,台式料理,台南,TW,http://maps.google.com/?cid=14449434982721545252,
王田鵝肉,24.1208171,120.5714891,台式料理,台中,TW,http://maps.google.com/?cid=686687836782674611,
一味品碗粿魚羹,22.9975513,120.1988988,台式小吃,台南,TW,http://maps.google.com/?cid=163502458625398847,
麻入口 台南永康店,23.008697,120.2323352,台式料理,台南,TW,http://maps.google.com/?cid=6082373468241402472,
連得堂餅家,23.0004068,120.2066691,台式料理,台南,TW,http://maps.google.com/?cid=11005477751414286542,
聖記軟骨飯,22.9955231,120.1962676,台式料理,台南,TW,http://maps.google.com/?cid=67382511302860596,
黃家鱔魚意麵,22.996477,120.198469,台式料理,台南,TW,http://maps.google.com/?cid=17966284854877483802,
鄭記蔥肉餅-西門店,22.9899521,120.1974836,台式料理,台南,TW,http://maps.google.com/?cid=11939851147084999630,
夏家手工魚麵,22.9900386,120.1993154,台式料理,台南,TW,http://maps.google.com/?cid=7885713323066056340,
黃家碗粿,22.9907103,120.2003069,台式小吃,台南,TW,http://maps.google.com/?cid=14430116834662403135,
波諦波諦鮮做飲料-大同區飲料 大同區飲料外送 大同區果汁 雙連飲料 雙連飲料外送 雙連果汁,25.0569716,121.5162151,台式料理,台北,TW,http://maps.google.com/?cid=13164409997613881166,
蓮香苡麵店,23.974761,121.606799,台式料理,花蓮,TW,http://maps.google.com/?cid=2915964851427794327,
嘉義黑人涼麵,23.4703055,120.438101,台式料理,嘉義,TW,http://maps.google.com/?cid=6997621653005885534,
涼麵四味果汁文化店,23.4884364,120.4466856,台式料理,嘉義,TW,http://maps.google.com/?cid=9153855518199610416,
公園老店涼麵,23.4802574,120.4592245,景點,嘉義,TW,http://maps.google.com/?cid=9084204771606934182,
崇文錦魯麵,23.472,120.4534672,台式料理,嘉義,TW,http://maps.google.com/?cid=16867267128567624478,
游記米粉湯,25.0568294,121.4954926,台式料理,台北,TW,http://maps.google.com/?cid=10889328256067451891,
嘉香早餐,24.153483,120.651604,台式料理,台中,TW,http://maps.google.com/?cid=6059800572478447819,
光輝肉羹,25.0957026,121.5234156,台式料理,台北,TW,http://maps.google.com/?cid=3977887923207342841,
魯肉發無刺虱目魚粥,25.0234346,121.4142369,台式小吃,桃園,TW,http://maps.google.com/?cid=18045752434278985058,
老張早餐吧- 宜蘭頭城人氣推薦早餐漢堡 傳統早餐 早午餐 銅板必吃美食 頭城好吃早餐店 衝浪客最愛早餐,24.8568568,121.8240995,台式料理,宜蘭,TW,http://maps.google.com/?cid=15896691675492451578,
吳記花生捲冰淇淋,24.8211551,121.7698581,冰品,宜蘭,TW,http://maps.google.com/?cid=15815193535489451926,
宜蘭龍潭日香炸蛋蔥油餅,24.7796262,121.7408131,台式料理,宜蘭,TW,http://maps.google.com/?cid=13271830340602728851,
玉圓堂,24.7486782,121.7492843,台式料理,宜蘭,TW,http://maps.google.com/?cid=12323344068202560465,
香廚米粉羹,24.6756462,121.7592492,台式料理,宜蘭,TW,http://maps.google.com/?cid=3091003716492449850,
正 原 陳氏 武淵蔥油餅 水火同源,24.6617829,121.8002469,台式料理,宜蘭,TW,http://maps.google.com/?cid=15699266454565824026,
林場三星蔥（曾氏）炸蛋蔥油餅,24.6838172,121.7909745,台式料理,宜蘭,TW,http://maps.google.com/?cid=8152640126124668133,
金珠蔥油餅-羅東店,24.673745,121.761696,台式料理,宜蘭,TW,http://maps.google.com/?cid=4699972928414904288,
柯氏蔥油餅,24.8211683,121.7698167,台式料理,宜蘭,TW,http://maps.google.com/?cid=11398737450042948607,
陳旺記鴨片飯,24.8287124,121.7718786,台式料理,宜蘭,TW,http://maps.google.com/?cid=7658981771169583428,
阿準越南料理,25.0313531,121.4710904,台式料理,台北,TW,http://maps.google.com/?cid=7628432997993923391,
川渝小吃坊/美食/小吃/restaurants/takeout,25.0520067,121.519642,台式料理,台北,TW,http://maps.google.com/?cid=2182843687451876530,
池音 雞白湯ラーメン,25.0538213,121.5202146,拉麵,台北,TW,http://maps.google.com/?cid=8369438642297747883,
羅東紅豆湯圓,24.6749339,121.770255,台式料理,宜蘭,TW,http://maps.google.com/?cid=12619329219148216957,
三冬麵舖,25.0187023,121.2947919,台式料理,桃園,TW,http://maps.google.com/?cid=17328389542179649493,
佳賓蒸餃館,24.1468047,120.6738102,台式料理,台中,TW,http://maps.google.com/?cid=13576476352114898771,
我家臭豆腐,24.0603603,120.44043,台式小吃,台中,TW,http://maps.google.com/?cid=13741469996116021525,
楊州肉圓芋丸,24.054471,120.43399,台式小吃,台中,TW,http://maps.google.com/?cid=2374456151117354248,
